,brand,province,city,area,name,address,lat,lng,Type,id
0,凯胜,甘肃省,定西市,岷县,凯胜汽车美容(东港新城东南),岷县212国道西50米,34.445275,104.054826,汽车服务;汽车养护/装饰;汽车养护,B0FFG6K0B3
1,凯胜,甘肃省,定西市,岷县,凯胜汽车美容(东港新城东南),岷县212国道西50米,34.445275,104.054826,汽车服务;汽车养护/装饰;汽车养护,B0FFG6K0B3
2,凯胜,山东省,聊城市,莘县,莘县凯胜机械配件有限公司,莘县259省道西150米,36.384819,115.67957,公司企业;公司;公司,B0FFG0PX6W
3,凯胜,山东省,聊城市,莘县,莘县凯胜机械配件有限公司,莘县259省道西150米,36.384819,115.67957,公司企业;公司;公司,B0FFG0PX6W
4,凯胜,北京市,北京市,海淀区,网羽有约,海淀区北三环中路44号,39.966667,116.360606,购物服务;体育用品店;体育用品店,B000A7QP4N
5,凯胜,北京市,北京市,朝阳区,凯胜达昌,朝阳区大羊坊路东150米,39.854084,116.48051799999999,购物服务;家电电子卖场;手机销售,B0FFFLJY37
6,凯胜,北京市,北京市,丰台区,凯胜龙骨厂,丰台区玉泉营顺发伟业建材市场15号,39.842194,116.34012299999999,购物服务;家居建材市场;建材五金市场,B000A7WWLD
7,凯胜,北京市,北京市,顺义区,凯胜顺发超市,顺义区顺沙路187号1附近,40.149377,116.53013200000001,购物服务;便民商店/便利店;便民商店/便利店,B0FFG4D2BW
8,凯胜,北京市,北京市,丰台区,凯胜世纪奥迪服务中心,丰台区南四环中路260号,39.829233,116.35183799999999,汽车维修;奥迪特约维修;奥迪维修,B0FFF342CH
9,凯胜,北京市,北京市,石景山区,凯胜集团,石景山区京原路七号院,39.897713,116.21061399999999,公司企业;公司;公司,B0FFH0DK7H
10,凯胜,北京市,北京市,朝阳区,凯胜地产,朝阳区阜通东大街1号院塔1C坐2309,39.996983,116.481101,生活服务;生活服务场所;生活服务场所,B0FFI8XPV3
11,凯胜,北京市,北京市,朝阳区,凯胜出国,朝阳区光华东里8号院中海广场南楼9层,39.910526000000004,116.456505,公司企业;公司企业;公司企业,B0FFIZ6SHR
12,凯胜,北京市,北京市,丰台区,凯胜世纪,丰台区白盆窑男单身公寓院内,39.805437,116.318605,公司企业;公司企业;公司企业,B0FFH90EE2
13,凯胜,北京市,北京市,昌平区,北京凯胜电子,昌平区南邵镇姜屯中街28号,40.182840999999996,116.265698,公司企业;公司;机械电子,B0FFFQ1QXB
14,凯胜,北京市,北京市,昌平区,凯胜二手车,昌平区[],40.0725,116.30975900000001,汽车服务;二手车交易;二手车交易,B0FFH95RRK
15,凯胜,北京市,北京市,海淀区,凯胜台球厅,海淀区温泉凯盛家园一区华联生活超市旁边,40.049347999999995,116.17346,体育休闲服务;运动场馆;台球厅,B0FFIKZCPA
16,凯胜,北京市,北京市,门头沟区,北京奉发凯胜科技有限公司,门头沟区大台街道美安路6号,39.899489,116.12220900000001,公司企业;公司;网络科技,B0FFG8UR0D
17,凯胜,北京市,北京市,大兴区,北京凯胜餐饮品牌管理有限公司,大兴区宏业路4号院嘉悦广场4号楼1809,39.785932,116.324651,公司企业;公司;公司,B0FFH3R0FD
18,凯胜,北京市,北京市,朝阳区,凯胜联合因私出入境服务有限公司(金桐东路),朝阳区光华东里8号中海广场中楼12层1210,39.910879,116.45661399999999,公司企业;公司;公司,B000A8VXZN
19,凯胜,北京市,北京市,朝阳区,凯胜中空玻璃加工厂,朝阳区小红门南四环东路100号,39.830940999999996,116.43063899999999,公司企业;公司企业;公司企业,B0FFH9ED9M
20,凯胜,北京市,北京市,朝阳区,北京凯盛,朝阳区常营五里桥一街非中心20号楼,39.929106,116.612532,公司企业;公司;公司,B0FFFL2NHH
21,凯胜,北京市,北京市,朝阳区,北京凯圣汽车维修服务中心,朝阳区崔各乡南皋路126号,40.001891,116.522593,汽车维修;汽车综合维修;汽车综合维修,B000A8XLK4
22,凯胜,北京市,北京市,大兴区,凯盛图文快印,大兴区亦庄经济技术开发区上海沙龙商业二期二层02J003,39.790394,116.49961699999999,生活服务;生活服务场所;生活服务场所,B000A8UDRK
23,凯胜,北京市,北京市,昌平区,凯盛家纺(新世纪商城三宫庙胡同),昌平区鼓楼南大街17号新世纪商城F5层,40.218816,116.233295,购物服务;家居建材市场;布艺市场,B0FFF3KSYR
24,凯胜,新疆维吾尔自治区,哈密市,伊州区,凯胜五金,伊州区新市区街道前进东路铁路12街5栋,42.844004999999996,93.514899,购物服务;家居建材市场;建材五金市场,B0FFG9W9VO
25,凯胜,新疆维吾尔自治区,哈密市,伊州区,凯胜达彩钢,伊州区019乡道东100米,42.853835,93.61089,公司企业;公司;公司,B0FFGOOWQQ
26,凯胜,江苏省,南京市,雨花台区,凯胜瑞汽车用品批发,雨花台区软件大道20号宁南汽配城7幢18号,31.981689000000003,118.79883899999999,汽车服务;汽车服务相关;汽车服务相关,B0FFFZVDAI
27,凯胜,江苏省,南京市,鼓楼区,凯盛家纺,鼓楼区建宁路8号玉桥商业广场A栋3层E区3E022,32.091155,118.781042,购物服务;家居建材市场;家居建材市场,B0FFG4S6CT
28,凯胜,天津市,天津市,滨海新区,凯胜捷广告图文,滨海新区新港二号路98号,39.003337,117.704796,生活服务;生活服务场所;生活服务场所,B0FFI7A53Q
29,凯胜,天津市,天津市,滨海新区,凯胜捷广告图文,滨海新区公安街鸿运小区,39.008210999999996,117.68181399999999,生活服务;生活服务场所;生活服务场所,B0FFF2NPX2
30,凯胜,天津市,天津市,东丽区,凯胜房产(张贵庄店),东丽区栖霞道与福山路交叉口东北50米,39.087091,117.31865800000001,生活服务;中介机构;中介机构,B0FFHMC7OR
31,凯胜,天津市,天津市,滨海新区,凯胜美不锈钢加工厂,滨海新区兴港桥与建材路交叉口西50米,39.027266999999995,117.67450600000001,购物服务;家居建材市场;建材五金市场|公司企业;公司企业;公司企业,B001610WMJ
32,凯胜,天津市,天津市,滨海新区,凯胜羽毛球专卖(天津市刘松体育用品商店),滨海新区滨海新村东区58栋101号,38.990124,117.70691599999999,购物服务;专卖店;专营店,B0FFG1KAQE
33,凯胜,天津市,天津市,滨海新区,凯胜养殖有限公司,滨海新区芦堂公路杨家泊镇政府西北1000米,39.303509000000005,117.89483899999999,公司企业;农林牧渔基地;其它农林牧渔基地,B001611BRS
34,凯胜,天津市,天津市,红桥区,天津市凯胜电器有限责任公司,红桥区勤俭道21号,39.180834999999995,117.16367199999999,公司企业;公司;机械电子,B001607YJ6
35,凯胜,天津市,天津市,东丽区,天津艾克凯胜石墨烯科技有限公司,东丽区开发区丽新路10号格里森商业街,39.076632000000004,117.34336599999999,公司企业;公司企业;公司企业,B0FFIXHTVL
36,凯胜,云南省,红河哈尼族彝族自治州,泸西县,云南凯胜电力监理咨询有限公司项目监理部,泸西县阿庐大街西150米,24.538332,103.753956,公司企业;公司;公司,B0FFHJ8F3R
37,凯胜,云南省,红河哈尼族彝族自治州,个旧市,个旧市凯盛汽配,个旧市阳山大道东50米,23.403437,103.150245,汽车服务;汽车配件销售;汽车配件销售,B0FFG4950J
38,凯胜,湖南省,常德市,武陵区,凯胜羽毛球馆,武陵区汽修巷79号,29.033838,111.66948000000001,体育休闲服务;体育休闲服务场所;体育休闲服务场所,B0FFGXTUX3
39,凯胜,湖南省,常德市,武陵区,凯胜羽毛球馆,武陵区汽修巷79号,29.033838,111.66948000000001,体育休闲服务;体育休闲服务场所;体育休闲服务场所,B0FFGXTUX3
40,凯胜,安徽省,安庆市,迎江区,凯胜广告,迎江区沿江东路45号附近,30.502285999999998,117.065145,生活服务;生活服务场所;生活服务场所,B0FFFZO5B7
41,凯胜,安徽省,安庆市,迎江区,凯胜装饰·创意年代,迎江区棋盘山路与沿江东路交叉口西150米,30.502354999999998,117.06508000000001,公司企业;公司;广告装饰,B0FFIA03ZU
42,凯胜,吉林省,松原市,宁江区,凯胜羽毛球专卖(宏昌文体商店),宁江区长宁北街宏昌文体商店,45.196803,124.81083500000001,购物服务;购物相关场所;购物相关场所,B0FFGSYE2E
43,凯胜,吉林省,松原市,宁江区,凯胜羽毛球专卖(宏昌文体商店),宁江区长宁北街宏昌文体商店,45.196803,124.81083500000001,购物服务;购物相关场所;购物相关场所,B0FFGSYE2E
44,凯胜,湖南省,长沙市,岳麓区,长沙凯胜水电经营部,岳麓区金盛园建材市场11栋29-32号,28.216825,112.916428,购物服务;家居建材市场;建材五金市场,B02DB0X98S
45,凯胜,湖南省,长沙市,天心区,Kason,天心区白沙路267-附5号附近,28.178473999999998,112.98046200000002,购物服务;体育用品店;体育用品店,B0FFG13THQ
46,凯胜,湖南省,长沙市,开福区,星驰体育(体育馆店),开福区体育馆路114号,28.208311,112.988248,购物服务;体育用品店;体育用品店,B02DB0TMEW
47,凯胜,湖南省,长沙市,雨花区,凯胜厨具公司,雨花区跳马镇秦家港,28.088749,113.13190800000001,公司企业;公司;公司,B0FFGNMIYX
48,凯胜,湖南省,长沙市,开福区,凯胜餐厅,开福区潘家坪路101号(凯雪大包旁),28.220713,112.98357800000001,餐饮服务;中餐厅;中餐厅,B02DB0ZFEH
49,凯胜,湖南省,长沙市,雨花区,凯胜汽车维修厂,雨花区合丰安置小区A2栋,28.172296999999997,113.06068700000002,汽车维修;汽车维修;汽车维修,B0FFI5X5HG
50,凯胜,湖南省,长沙市,芙蓉区,长沙凯胜空压机有限公司,芙蓉区南湖五金机电市场6栋26号,28.207196999999997,113.01536000000002,公司企业;公司;公司,B0FFH21O4P
51,凯胜,湖南省,长沙市,岳麓区,凯胜韩式烤肉拌饭,岳麓区涧塘小区,28.217247999999998,112.909851,餐饮服务;餐饮相关场所;餐饮相关,B0FFI91BTK
52,凯胜,广东省,湛江市,霞山区,凯胜餐饮管理有限公司,霞山区乐山西路15号二栋,21.228726,110.383576,公司企业;公司;公司,B0FFHVH2WS
53,凯胜,广东省,湛江市,霞山区,凯胜餐饮管理有限公司,霞山区乐山西路15号二栋,21.228726,110.383576,公司企业;公司;公司,B0FFHVH2WS
54,凯胜,湖北省,咸宁市,赤壁市,凯胜装饰,赤壁市天瑞广场1楼,29.723803000000004,113.929705,购物服务;家居建材市场;建材五金市场,B0FFGCWWMO
55,凯胜,湖北省,咸宁市,赤壁市,凯胜装饰,赤壁市赤壁大道南200米,29.725879,113.88552,公司企业;公司;公司,B0FFG0IO4M
56,凯胜,广东省,深圳市,南山区,凯胜体育,南山区常兴路159号,22.537467000000003,113.92178899999999,购物服务;体育用品店;体育用品店,B02F37W5AD
57,凯胜,广东省,深圳市,宝安区,凯胜光电,宝安区水田社区宝石东路123号安可工业区A栋5楼,22.684585000000002,113.958549,公司企业;公司;公司,B0FFGW5G8T
58,凯胜,广东省,深圳市,龙岗区,凯胜物流(宝丹路),龙岗区宝丹路附近,22.628687,114.14285500000001,生活服务;物流速递;物流速递,B02F30A1LM
59,凯胜,广东省,深圳市,龙岗区,凯胜动漫,龙岗区美竹巷与雪诺巷路交叉口东南50米,22.654704000000002,114.077501,体育休闲服务;运动场馆;运动场所,B0FFI9BLD1
60,凯胜,广东省,深圳市,宝安区,凯胜厂宿舍3栋,宝安区中泰街3号,22.782473,113.93728899999999,地名地址信息;门牌信息;楼栋号,B0FFF51V82
61,凯胜,广东省,深圳市,宝安区,凯胜科技有限公司,宝安区光明办事处公明镇楼村滨海明珠工业园2栋A座,22.7771,113.91685,公司企业;公司;公司,B0FFH2SY3O
62,凯胜,广东省,深圳市,福田区,深圳市福田区凯胜票务经营部,福田区华发南路中电小区35-15号,22.539506,114.089165,生活服务;售票处;售票处,B0FFHLL10I
63,凯胜,广东省,深圳市,福田区,深圳市福田区凯胜票务经营部,福田区南园街道赤尾村二街3-1号,22.530664,114.086077,生活服务;售票处;售票处,B0FFHEVEHN
64,凯胜,广东省,深圳市,罗湖区,深圳市凯胜物业管理有限公司(东北门),罗湖区贝丽南路25号附近,22.562225,114.127071,通行设施;临街院门;临街院门,B0FFH67I1X
65,凯胜,广东省,深圳市,宝安区,许凯胜中医内科诊所,宝安区万丰中路与仁爱路交叉口南50米,22.721356,113.82508100000001,医疗保健服务;诊所;诊所,B0FFGXPGBI
66,凯胜,广东省,深圳市,坪山区,深圳市凯胜威电子有限公司,坪山区坪山区金田路田头埔新路2号厂房,22.692616,114.395121,公司企业;公司企业;公司企业,B0FFHIL5RP
67,凯胜,广东省,深圳市,南山区,李宁(凯胜羽毛球专卖店),南山区南山大道1002-3号,22.515214999999998,113.91942900000001,购物服务;体育用品店;李宁专卖店,B0FFHCON0Z
68,凯胜,山东省,威海市,环翠区,凯胜汽车美容(文化西路),环翠区文化西路139-10号,37.526472,122.07388200000001,汽车服务;汽车养护/装饰;汽车养护,B0FFFSXQL5
69,凯胜,山东省,威海市,文登区,凯胜汽车装潢,文登区昆嵛路与901省道交叉口北150米,37.207332,122.055692,汽车服务;汽车养护/装饰;汽车养护,B0FFG24NBC
70,凯胜,山东省,威海市,乳山市,凯声电瓶,乳山市胜利街16号,36.915127000000005,121.513851,购物服务;专卖店;专营店,B027701TA9
71,凯胜,吉林省,四平市,双辽市,凯胜汽车,双辽市白市街民瑞人家7号楼门市(郑家屯酒业旁边),43.505063,123.500722,汽车销售;汽车销售;汽车销售,B0FFI2HJTW
72,凯胜,吉林省,四平市,铁东区,四平热力凯胜站,铁东区南三纬路与南四经街交叉口东南100米,43.162271999999994,124.3854,生活服务;生活服务场所;生活服务场所,B0FFH492HN
73,凯胜,云南省,曲靖市,陆良县,凯胜广告,陆良县中枢镇真理街千佛商业城4-4,25.022448999999998,103.667045,生活服务;生活服务场所;生活服务场所,B0FFI1WEAS
74,凯胜,云南省,曲靖市,陆良县,凯胜广告,陆良县中枢镇真理街千佛商业城4-4,25.022448999999998,103.667045,生活服务;生活服务场所;生活服务场所,B0FFI1WEAS
75,凯胜,山东省,临沂市,平邑县,凯胜抵押车行,平邑县文泗线南50米,35.460002,117.836471,购物服务;购物相关场所;购物相关场所,B0FFIWEJWN
76,凯胜,山东省,临沂市,蒙阴县,凯胜螺丝螺母五金工具大全,蒙阴县新城西路143-4号,35.716406,117.93020600000001,购物服务;购物相关场所;购物相关场所,B0FFHO60O2
77,凯胜,山东省,临沂市,平邑县,平邑县凯胜建筑劳务有限公司,平邑县平邑街道南环路东段北首(冠鲁南公司东100米路北),35.493484,117.643474,公司企业;公司;公司,B0FFGMDUIT
78,凯胜,山东省,临沂市,平邑县,凯胜二手车行,平邑县文泗线北50米,35.455886,117.85216899999999,汽车服务;二手车交易;二手车交易,B0FFH6CS3B
79,凯胜,江苏省,扬州市,广陵区,凯胜电热电子秤弹簧,广陵区渡江南路渡江南路9-3号,32.379006,119.443298,购物服务;购物相关场所;购物相关场所,B0FFGZHVJ4
80,凯胜,江苏省,扬州市,广陵区,凯胜电热电子秤弹簧,广陵区渡江南路渡江南路9-3号,32.379006,119.443298,购物服务;购物相关场所;购物相关场所,B0FFGZHVJ4
81,凯胜,广东省,汕头市,澄海区,凯胜体育商场,澄海区中山中路与环城北路交叉口东50米,23.467175,116.773222,购物服务;购物相关场所;购物相关场所,B0FFG2IOV3
82,凯胜,广东省,汕头市,澄海区,凯胜轮胎,澄海区韩景雅居二期一层105-106号,23.489302,116.778977,汽车服务;汽车配件销售;汽车配件销售,B0FFH25V97
83,凯胜,广东省,汕头市,龙湖区,汕头市凯胜汽车贸易有限公司,龙湖区珠江路57号之2,23.375854,116.746728,汽车销售;汽车销售;汽车销售,B0FFIPGSAK
84,凯胜,广东省,汕头市,龙湖区,凯胜悦景轩,龙湖区珠池路蓝田庄域内,23.371657,116.744854,商务住宅;住宅区;住宅小区,B02F20O2SC
85,凯胜,广东省,汕头市,龙湖区,汕头市凯胜房地产开发有限公司,龙湖区长江路39号凯逸家园一幢,23.378122,116.72679299999999,公司企业;公司;公司,B02F20OLAM
86,凯胜,四川省,达州市,大竹县,凯胜电子,大竹县福康街131号,30.738359000000003,107.207649,购物服务;家电电子卖场;数码电子,B03320P9XF
87,凯胜,四川省,达州市,大竹县,惠普专卖店(凯胜电子),大竹县竹阳镇福康街5号,30.738543,107.20679399999999,购物服务;家电电子卖场;数码电子,B0FFH0PUMU
88,凯胜,四川省,达州市,万源市,汉中米皮(凯胜名都店),万源市太平镇凯胜名都B幢30号(排骨大包对面),32.065798,108.039726,餐饮服务;餐饮相关场所;餐饮相关,B0FFIYF76H
89,凯胜,四川省,达州市,万源市,东坡烤肉,万源市凯盛名都34号门市,32.065982,108.03966000000001,餐饮服务;中餐厅;特色/地方风味餐厅,B0FFHBK94K
90,凯胜,四川省,达州市,万源市,凯盛商行,万源市长青路37号,32.066159000000006,108.039689,购物服务;专卖店;烟酒专卖店,B0FFFVVWZ5
91,凯胜,四川省,自贡市,自流井区,凯胜(成龙凯胜店),自流井区陇海路189号,29.337593,104.76254300000001,购物服务;购物相关场所;购物相关场所,B032D0MZV6
92,凯胜,四川省,自贡市,自流井区,凯胜(成龙凯胜店),自流井区陇海路189号,29.337593,104.76254300000001,购物服务;购物相关场所;购物相关场所,B032D0MZV6
93,凯胜,四川省,遂宁市,船山区,凯胜副食店,船山区凯东家具城旁,30.508364,105.57864,购物服务;购物相关场所;购物相关场所,B0FFHYR0W6
94,凯胜,四川省,遂宁市,船山区,凯胜副食店,船山区凯东家具城旁,30.508364,105.57864,购物服务;购物相关场所;购物相关场所,B0FFHYR0W6
95,凯胜,河南省,洛阳市,西工区,凯胜胡羊排,西工区魏紫路阳光新城清水湾东区2-10号,34.702378,112.41717,餐饮服务;中餐厅;中餐厅,B0FFIZYC6O
96,凯胜,河南省,洛阳市,西工区,凯胜胡羊排,西工区魏紫路阳光新城清水湾东区2-10号,34.702378,112.41717,餐饮服务;中餐厅;中餐厅,B0FFIZYC6O
97,凯胜,江苏省,镇江市,丹阳市,江苏凯胜炉业有限公司,丹阳市009乡道西50米,31.896845000000003,119.75408999999999,公司企业;公司;公司,B01FF0P5IQ
98,凯胜,江苏省,镇江市,句容市,凯盛家纺(句容店),句容市华阳南路4-2号,31.946295000000003,119.16623899999999,购物服务;家居建材市场;布艺市场,B0FFG025BE
99,凯胜,吉林省,长春市,南关区,浩洋体育,南关区体北路35号,43.872099,125.347475,购物服务;体育用品店;体育用品店,B01AF0ZVIH
100,凯胜,吉林省,长春市,南关区,浩洋体育,南关区体北路35号,43.872099,125.347475,购物服务;体育用品店;体育用品店,B01AF0ZVIH
101,凯胜,广东省,梅州市,梅江区,凯胜辅助器具中心,梅江区丽都西路与定民路交叉口东50米,24.281701,116.11864299999999,医疗保健服务;医药保健销售店;医疗保健用品,B0FFH1DBW7
102,凯胜,广东省,梅州市,梅江区,凯胜辅助器具中心,梅江区丽都西路与定民路交叉口东50米,24.281701,116.11864299999999,医疗保健服务;医药保健销售店;医疗保健用品,B0FFH1DBW7
103,凯胜,香港特别行政区,香港特别行政区,观塘区,凯胜,观塘区观塘开源道47号凯源工业大厦1楼,22.307323999999998,114.228385,购物服务;体育用品店;体育用品店,B0FFI1NEVV
104,凯胜,香港特别行政区,香港特别行政区,观塘区,凯胜,观塘区观塘开源道47号凯源工业大厦1楼,22.307323999999998,114.228385,购物服务;体育用品店;体育用品店,B0FFI1NEVV
105,凯胜,福建省,厦门市,湖里区,华人寝饰床上用品批发零售,湖里区殿前街道殿前3组3075,24.524852,118.11006,购物服务;家居建材市场;布艺市场,B02500V9QH
106,凯胜,福建省,厦门市,集美区,厦门凯胜诺电子有限公司,集美区同集南路318号宗顺商厦4楼,24.603972,118.11538200000001,公司企业;公司;公司,B0FFGIXWQ0
107,凯胜,福建省,厦门市,湖里区,凯胜达不锈钢工程部,湖里区华泰路24号之5号,24.50314,118.103995,购物服务;家居建材市场;建材五金市场,B0FFFD4Y8D
108,凯胜,云南省,保山市,隆阳区,凯胜广告,隆阳区隆阳路46号,25.10183,99.15853,生活服务;生活服务场所;生活服务场所,B036B0NE0M
109,凯胜,云南省,保山市,隆阳区,凯胜广告,隆阳区隆阳路46号,25.10183,99.15853,生活服务;生活服务场所;生活服务场所,B036B0NE0M
110,凯胜,安徽省,蚌埠市,淮上区,凯胜汽车修理厂,淮上区029县道与306省道交叉口东北50米,32.988731,117.54761,汽车维修;汽车维修;汽车维修,B0FFHWCD79
111,凯胜,安徽省,蚌埠市,龙子湖区,蚌埠凯盛工程技术有限公司生产基地,龙子湖区高新技术开发区,32.954644,117.37733899999999,公司企业;公司;公司,B0FFGNWOEQ
112,凯胜,宁夏回族自治区,石嘴山市,惠农区,凯胜伟业会计服务部,惠农区邮政路9号,39.233309999999996,106.77962,生活服务;生活服务场所;生活服务场所,B0FFHM2YNZ
113,凯胜,宁夏回族自治区,石嘴山市,惠农区,凯胜伟业会计服务部,惠农区邮政路9号,39.233309999999996,106.77962,生活服务;生活服务场所;生活服务场所,B0FFHM2YNZ
114,凯胜,江西省,鹰潭市,月湖区,迪斯廷凯(胜利东路),月湖区胜利东路23号-16号,28.238829,117.039822,购物服务;服装鞋帽皮具店;服装鞋帽皮具店,B0FFG21FJF
115,凯胜,江西省,鹰潭市,月湖区,迪斯廷凯(胜利东路),月湖区胜利东路23号-16号,28.238829,117.039822,购物服务;服装鞋帽皮具店;服装鞋帽皮具店,B0FFG21FJF
116,凯胜,浙江省,衢州市,柯城区,凯胜路,柯城区柯城区,28.938946,118.861865,地名地址信息;交通地名;道路名,BZ9OQF00BI
117,凯胜,浙江省,衢州市,柯城区,凯胜汽车之家,柯城区赣州街10号(新建建材北大门),28.925213,118.90319299999999,汽车服务;汽车服务相关;汽车服务相关,B0FFHVWWNS
118,凯胜,浙江省,衢州市,柯城区,金华凯胜文化用品有限公司,柯城区杨浦路51-1号,28.935959999999998,118.901052,公司企业;公司;公司,B0FFG3Q9EW
119,凯胜,浙江省,衢州市,柯城区,凯胜装潢材料店,柯城区凯胜路与锦绣路交叉口北150米,28.940649,118.86241299999999,购物服务;家居建材市场;建材五金市场,B0FFHVW82L
120,凯胜,浙江省,衢州市,柯城区,兴华路与凯胜路交叉口,柯城区柯城区,28.942390999999997,118.863304,地名地址信息;交通地名;路口名,B0FFI8LKOB
121,凯胜,浙江省,衢州市,柯城区,凯胜路与荷一路交叉口,柯城区柯城区,28.944609000000003,118.864181,地名地址信息;交通地名;路口名,B0FFI8H5DZ
122,凯胜,浙江省,衢州市,柯城区,凯胜路与锦绣路交叉口,柯城区柯城区,28.939698999999997,118.86218000000001,地名地址信息;交通地名;路口名,B0FFI8HGB0
123,凯胜,浙江省,衢州市,柯城区,停车场(凯胜路),柯城区双港西路168号附近,28.937725,118.860469,交通设施服务;停车场;路边停车场,B0FFHVWK08
124,凯胜,浙江省,衢州市,柯城区,武大郎烧饼(凯胜路),柯城区双港街道滨港村黄头街新村2-1号,28.938105,118.860991,餐饮服务;餐饮相关场所;餐饮相关,B0FFGZKS50
125,凯胜,浙江省,衢州市,柯城区,华厦房产中介(凯胜路),柯城区兴华路与凯胜路交叉口西南150米,28.941338000000002,118.862707,生活服务;中介机构;中介机构,B0FFHG7YWA
126,凯胜,浙江省,衢州市,江山市,凯盛文具,江山市江东一街45号附近,28.724984000000003,118.633119,购物服务;文化用品店;文化用品店,B0FFGK0GBA
127,凯胜,湖南省,湘西土家族苗族自治州,泸溪县,浙江凯胜园林市政建设有限公司,泸溪县白沙镇辛女广场对面(旺家超市旁),28.218882,110.20405900000002,公司企业;公司;建筑公司,B0FFHW6FVT
128,凯胜,湖南省,湘西土家族苗族自治州,龙山县,凯盛家纺(西门垅路),龙山县西门垅路与长沙路交叉口东50米,29.451333,109.439388,购物服务;家居建材市场;布艺市场,B0FFG11ZQ3
129,凯胜,山西省,运城市,盐湖区,凯胜移动营业厅,盐湖区西城街道红旗西街西花园对面,35.014734999999995,110.98978899999999,生活服务;电讯营业厅;中国移动营业厅,B0FFHDD61E
130,凯胜,山西省,运城市,垣曲县,凯胜广播电视网络传输有限公司,垣曲县[],35.286817,111.66585400000001,公司企业;公司;网络科技,B0FFIBHYAH
131,凯胜,河北省,廊坊市,三河市,凯胜五金百货,三河市燕郊经济技术开发区京东燕郊开发区上上城二季门口,39.95731,116.79209499999999,购物服务;家居建材市场;建材五金市场,B0FFFZA393
132,凯胜,河北省,廊坊市,广阳区,凯胜厨具,广阳区李桑园蔬源蔬菜批发市场院内,39.533177,116.74897299999999,购物服务;家居建材市场;厨卫市场,B0FFG9YGMK
133,凯胜,河北省,廊坊市,香河县,凯胜家具,香河县华汇家具城A厅南3门,39.758907,117.02276,购物服务;家居建材市场;家居建材市场,B0FFGYGX2D
134,凯胜,河北省,廊坊市,霸州市,凯胜台球,霸州市堂二里镇新建路怡人家电东北150米,39.148621999999996,116.73181299999999,体育休闲服务;运动场馆;台球厅,B0FFFRUN4S
135,凯胜,河北省,廊坊市,广阳区,凯胜厨房设备有限公司,广阳区北旺乡光明东道百户达综合批发市场,39.514681,116.74395,公司企业;公司;公司,B013C15EJS
136,凯胜,河北省,廊坊市,永清县,凯盛网络会所,永清县永清镇裕华路159号(新二小路那条街)中国人民保险对面,39.325627000000004,116.49235700000001,体育休闲服务;娱乐场所;网吧,B013C0ILP3
137,凯胜,江西省,吉安市,吉州区,吉安三中凯胜羽毛球馆,吉州区跃进路42号吉安三中体育馆,27.093059999999998,114.981903,体育休闲服务;运动场馆;羽毛球场,B031C0P4EK
138,凯胜,江西省,吉安市,青原区,齐凯胜橱饰,青原区天玉镇河东经济开发区绿宝大道,27.119428999999997,115.05258700000002,公司企业;公司企业;公司企业,B0FFI2AT6L
139,凯胜,上海市,上海市,宝山区,凯胜木业,宝山区罗店镇联杨路4566号西门,31.40485,121.3231,购物服务;家居建材市场;厨卫市场,B0FFH2XPMV
140,凯胜,上海市,上海市,宝山区,凯胜五金防水保温,宝山区月浦镇春雷路257号,31.406910999999997,121.434009,购物服务;家居建材市场;建材五金市场,B0FFFBXKEI
141,凯胜,上海市,上海市,浦东新区,凯胜羽毛球(上海源深体育店),浦东新区源深路655号源深体育场1层,31.23152,121.53719,购物服务;体育用品店;体育用品店,B001576X67
142,凯胜,上海市,上海市,静安区,凯胜公司,静安区恒通路268号凯德星贸广场19楼,31.241160999999998,121.457893,公司企业;公司;公司,B0FFIP6P22
143,凯胜,上海市,上海市,松江区,上海凯胜集团有限公司,松江区松江出口加工区松卫北路573号松港大厦3层,31.024395000000002,121.261338,公司企业;公司企业;公司企业,B0FFHMSZHP
144,凯胜,上海市,上海市,浦东新区,上海凯胜信息技术有限公司,浦东新区金皖路399金皖399产业园5层,31.255187,121.62080900000001,公司企业;公司;网络科技,B0FFG95J3X
145,凯胜,上海市,上海市,浦东新区,上海凯胜餐饮管理有限公司,浦东新区祖冲之路1239弄5号长泰广场6号3W01室,31.204827,121.60110700000001,公司企业;公司;公司,B0FFG1SU6M
146,凯胜,上海市,上海市,金山区,上海凯胜车业制造公司,金山区枫泾镇环东一路65弄4号b区,30.890696999999996,121.05371799999999,公司企业;公司;公司,B00156ZELX
147,凯胜,上海市,上海市,徐汇区,山东凯胜电子股份有限公司,徐汇区龙漕路1弄8号物资商务楼5层516,31.16913,121.43546,公司企业;公司;公司,B0FFG2120Q
148,凯胜,上海市,上海市,徐汇区,凯胜豪升国际贸易(上海)有限公司,徐汇区虹桥路1号港汇中心1座2208,31.194983,121.43778,公司企业;公司;商业贸易,B00155I3XR
149,凯胜,上海市,上海市,闵行区,上海凯胜建筑加固工程有限公司,闵行区莘福路338号1207室,31.107313,121.361313,公司企业;公司;公司,B0FFFDHID1
150,凯胜,上海市,上海市,浦东新区,凯盛家纺(上海第一八佰伴新世纪商厦),浦东新区张杨路501号上海第一八佰伴新世纪商厦F6层,31.22836,121.51656200000001,购物服务;家居建材市场;布艺市场,B00156YPDE
151,凯胜,上海市,上海市,嘉定区,凯腾精门,嘉定区南翔镇老翔陈路8号,31.327288,121.33862099999999,公司企业;公司;公司,B0FFF3OQFG
152,凯胜,湖北省,孝感市,孝南区,凯胜羽毛球专卖(孝感永辉体育城店),孝南区城站路33号,30.928043,113.918176,购物服务;购物相关场所;购物相关场所,B0FFGKVHA6
153,凯胜,湖北省,孝感市,孝南区,凯胜羽毛球专卖(孝感永辉体育城店),孝南区城站路33号,30.928043,113.918176,购物服务;购物相关场所;购物相关场所,B0FFGKVHA6
154,凯胜,江苏省,无锡市,江阴市,凯胜足球,江阴市澄江街道寿山路14号,31.909515999999996,120.266474,购物服务;体育用品店;体育用品店,B0FFH2X0MB
155,凯胜,江苏省,无锡市,江阴市,凯胜车SPA馆,江阴市徐霞客镇峭岐博爱路60号,31.815021,120.305314,生活服务;美容美发店;美容美发店,B0FFGWVX39
156,凯胜,江苏省,无锡市,宜兴市,江苏凯胜德莱环保有限公司,宜兴市高塍镇江南路12号,31.450836,119.80675,公司企业;公司;公司,B01FE15U2C
157,凯胜,江西省,新余市,渝水区,江西凯胜劳务服务有限公司,渝水区团结东路188号,27.799302,114.940615,公司企业;公司;公司,B0FFG7I2E5
158,凯胜,江西省,新余市,渝水区,江西凯胜劳务服务有限公司,渝水区团结东路188号,27.799302,114.940615,公司企业;公司;公司,B0FFG7I2E5
159,凯胜,福建省,福州市,仓山区,凯胜鞋业,仓山区城门镇浚边村806号,25.969445999999998,119.39126100000001,公司企业;公司;公司,B024F05YNO
160,凯胜,福建省,福州市,长乐区,凯胜房产,长乐区会堂路与郑和西路交叉口南100米,25.957348,119.50463,生活服务;中介机构;中介机构,B0FFHO6XYY
161,凯胜,福建省,福州市,仓山区,凯胜物流,仓山区金山街道齐安路兴顺物流园E区12-13号,25.997776,119.293819,生活服务;物流速递;物流速递,B0FFH2SWR4
162,凯胜,福建省,福州市,仓山区,凯胜机械,仓山区则徐大道368号仓山工业小区25号,26.025381,119.32793999999998,公司企业;公司;机械电子,B0FFFGX9Z3
163,凯胜,福建省,福州市,长乐区,凯胜泡沫厂,长乐区文武砂镇三站村88号艾维尔实业第八生产车间,25.873817000000003,119.563657,公司企业;公司企业;公司企业,B0FFHILJAA
164,凯胜,福建省,福州市,马尾区,凯胜茶庄棋牌室,马尾区名城港湾C区57-60幢35号儒江东路,26.014266,119.42244,体育休闲服务;娱乐场所;棋牌室,B0FFFXM596
165,凯胜,福建省,福州市,晋安区,凯盛五金水暖劳保,晋安区福马路500-31号,26.070582,119.357157,购物服务;家居建材市场;建材五金市场,B0FFFGM5UM
166,凯胜,湖南省,娄底市,娄星区,凯胜汽车养护中心,娄星区黄泥塘街道仙桥街571号,27.758699,111.987785,汽车服务;汽车养护/装饰;汽车养护,B0FFFWSH8D
167,凯胜,湖南省,娄底市,娄星区,凯胜汽车养护中心,娄星区黄泥塘街道仙桥街571号,27.758699,111.987785,汽车服务;汽车养护/装饰;汽车养护,B0FFFWSH8D
168,凯胜,江苏省,连云港市,灌南县,凯胜编织羊绒衫,灌南县新安北路11号,34.094479,119.351444,购物服务;服装鞋帽皮具店;服装鞋帽皮具店,B0FFG7F1K0
169,凯胜,江苏省,连云港市,灌南县,凯胜编织羊绒衫,灌南县新安北路11号,34.094479,119.351444,购物服务;服装鞋帽皮具店;服装鞋帽皮具店,B0FFG7F1K0
170,凯胜,山东省,德州市,宁津县,德州凯胜化工有限公司,宁津县249省道东100米,37.709301,116.83096200000001,公司企业;公司;冶金化工,B0FFHEXF9D
171,凯胜,山东省,德州市,德城区,德州凯胜汽车销售有限公司,德城区铁西南路10号附近,37.441829,116.286296,汽车销售;汽车销售;汽车销售,B0FFJ4IL5X
172,凯胜,山东省,德州市,德城区,山东凯盛保险代理股份有限公司,德城区天衢街道大学路名苑小区门口西,37.469338,116.316525,金融保险服务;保险公司;保险公司,B0FFH2EAWK
173,凯胜,江苏省,苏州市,吴江区,凯胜冷冻店,吴江区苏同黎公路与302县道交叉口南100米,31.116768,120.74203700000001,购物服务;购物相关场所;购物相关场所,B0FFISK7L6
174,凯胜,江苏省,苏州市,太仓市,凯胜管道配件消防器材厂销部,太仓市郑和西路387号附近,31.444568,121.089592,购物服务;家居建材市场;建材五金市场,B0FFG8DGC0
175,凯胜,江苏省,苏州市,吴中区,凯胜中介,吴中区甪直镇临港街东升小学后门,31.282548,120.818022,生活服务;生活服务场所;生活服务场所,B0FFIRFLOT
176,凯胜,江苏省,苏州市,昆山市,凯胜照相馆,昆山市玉山镇紫竹路242号,31.396501,120.95895900000001,生活服务;摄影冲印店;摄影冲印,B020005WC0
177,凯胜,江苏省,苏州市,昆山市,凯胜电子,昆山市玉山镇昆山城北路1012号(亭林印刷有限公司a栋3楼),31.42635,120.94135,公司企业;公司企业;公司企业,B0FFHNXTFU
178,凯胜,江苏省,苏州市,张家港市,凯胜控制,张家港市杨舍镇华建大厦A幢19楼1901,31.867017999999998,120.514099,公司企业;公司企业;公司企业,B0FFIBVHD8
179,凯胜,江苏省,苏州市,相城区,苏州凯胜模具有限公司,相城区元和镇依福路88号,31.387321999999998,120.641535,公司企业;公司;公司,B02000JGO2
180,凯胜,江苏省,苏州市,吴中区,苏州凯胜精密模具有限公司,吴中区甪直镇淞南路3号,31.281509000000003,120.86371000000001,公司企业;公司;公司,B0FFGHA02Z
181,凯胜,江苏省,苏州市,昆山市,凯胜文化用品有限公司,昆山市朝阳西路2011号万家汇商贸城F1,31.370288000000002,120.92248500000001,公司企业;公司;公司,B0FFHEUMFW
182,凯胜,江苏省,苏州市,吴中区,开胜劳务,吴中区凌港路与金鸡湖大道交叉口北200米,31.282595,120.817851,生活服务;人才市场;人才市场,B0FFFVN89Q
183,凯胜,江苏省,苏州市,相城区,凯盛模具厂,相城区开发区蠡口镇福园路88号,31.387242999999998,120.641228,公司企业;公司企业;公司企业,B0FFGVYAOG
184,凯胜,江苏省,苏州市,昆山市,凯盛工艺画廊,昆山市张浦镇亲和路34号,31.292921000000003,120.945421,购物服务;专卖店;珠宝首饰工艺品,B0FFHFL9RI
185,凯胜,内蒙古自治区,巴彦淖尔市,临河区,凯盛家纺(新华西街),临河区胜利路国泰时尚广场3层,40.753704,107.41606100000001,购物服务;家居建材市场;布艺市场,B0FFFPWQYZ
186,凯胜,内蒙古自治区,巴彦淖尔市,临河区,凯盛家纺(新华西街),临河区胜利路国泰时尚广场3层,40.753704,107.41606100000001,购物服务;家居建材市场;布艺市场,B0FFFPWQYZ
187,凯胜,陕西省,西安市,未央区,凯胜二手塑料桶吨桶批发,未央区石化大道南,34.320607,108.86015,购物服务;专卖店;专营店,B0FFHXM7PX
188,凯胜,陕西省,西安市,新城区,凯胜塑料制品,新城区华清路西北五金工具机电批发市场东9排242号,34.285947,109.005253,购物服务;专卖店;专营店,B0FFGB7KM9
189,凯胜,陕西省,西安市,未央区,车凯胜专业汽车音响改装基地,未央区阿房一路与西三环祥瑞汽车装饰城B1-104,34.266693,108.837425,汽车服务;汽车养护/装饰;汽车养护,B0FFG39H5Z
190,凯胜,陕西省,西安市,未央区,凯胜轮胎经销部,未央区天台路40号,34.270562,108.82526899999999,汽车服务;汽车配件销售;汽车配件销售,B001D10ZCV
191,凯胜,陕西省,西安市,灞桥区,凯胜智能温控坐垫西安总代理,灞桥区骞柳一区24号楼3单元1层附近,34.399646999999995,109.0226,公司企业;公司企业;公司企业,B0FFHO74MZ
192,凯胜,陕西省,西安市,未央区,西安车凯胜汽车音响改装隔音,未央区武警路2号附近,34.26709,108.83771000000002,汽车服务;汽车服务相关;汽车服务相关,B0FFIRTUEX
193,凯胜,甘肃省,兰州市,城关区,兰州凯胜数码,城关区东岗东路1999号万国港E座20层8室,36.041955,103.872079,购物服务;家电电子卖场;数码电子,B03A30Z8O5
194,凯胜,甘肃省,兰州市,西固区,凯胜建材,西固区闽兴建材城(南滨河西路南),36.101953,103.671207,购物服务;家居建材市场;家居建材市场,B0FFJ3WFXM
195,凯胜,甘肃省,兰州市,七里河区,七里河兰凯胜便利店,七里河区骆驼巷甘肃建总机关大院西(西区),36.062948,103.781287,购物服务;便民商店/便利店;便民商店/便利店,B0FFHIL75H
196,凯胜,甘肃省,兰州市,西固区,凯胜摄影,西固区庄浪西路158号供电局对面,36.093911,103.628999,生活服务;摄影冲印店;摄影冲印,B0FFF05OYG
197,凯胜,甘肃省,兰州市,永登县,凯胜娱乐中心,永登县纬四路北50米,36.495246,103.68235,体育休闲服务;娱乐场所;娱乐场所,B0FFGIOUVY
198,凯胜,甘肃省,兰州市,城关区,凯胜移民留学集团,城关区庆阳路250号世纪广场b座21层,36.055143,103.82693499999999,公司企业;公司企业;公司企业,B0FFF2MSZ3
199,凯胜,辽宁省,阜新市,细河区,凯胜达批发零售,细河区迎宾大街甲382-2-5门凯旋帝景底商内,42.01155,121.6239,购物服务;购物相关场所;购物相关场所,B0FFIP3L20
200,凯胜,辽宁省,阜新市,细河区,凯胜达批发零售,细河区迎宾大街甲382-2-5门凯旋帝景底商内,42.01155,121.6239,购物服务;购物相关场所;购物相关场所,B0FFIP3L20
201,凯胜,甘肃省,酒泉市,瓜州县,瓜州县凯胜商贸有限责任公司,瓜州县渊泉镇瓜州大道100-1号餐饮文化快捷楼下(宏金源大酒店),40.524165,95.777677,公司企业;公司;商业贸易,B0FFGZ77X2
202,凯胜,甘肃省,酒泉市,瓜州县,瓜州县凯胜商贸有限责任公司,瓜州县渊泉镇瓜州大道100-1号餐饮文化快捷楼下(宏金源大酒店),40.524165,95.777677,公司企业;公司;商业贸易,B0FFGZ77X2
203,凯胜,安徽省,芜湖市,鸠江区,凯胜羽毛球馆,鸠江区银湖北路41号,31.400876,118.37301200000002,体育休闲服务;运动场馆;羽毛球场,B0FFFV5NCP
204,凯胜,安徽省,芜湖市,镜湖区,凯盛家纺(镜湖路店),镜湖区滨江公共服务中心玫瑰大酒店(中二街)28号,31.325347999999998,118.37016000000001,购物服务;家居建材市场;布艺市场,B022900455
205,凯胜,福建省,泉州市,石狮市,凯胜皮革,石狮市鸿隆轻纺城鼎丰大厦3号,24.735922,118.61909399999999,购物服务;购物相关场所;购物相关场所,B0FFHP4TPK
206,凯胜,福建省,泉州市,泉港区,凯胜家居(界山总店),泉港区界山村农商银行对面,25.22171,118.86666000000001,购物服务;家居建材市场;家具城,B0FFIPZ6ZS
207,凯胜,福建省,泉州市,石狮市,辉宏凯胜辅料,石狮市石灵路149号附近,24.740064999999998,118.618977,购物服务;购物相关场所;购物相关场所,B0FFIG6UM6
208,凯胜,福建省,泉州市,惠安县,凯胜电动卷闸门厂,惠安县洋边村西埔90号,24.985211,118.973851,购物服务;购物相关场所;购物相关场所,B0FFJ0ST7Q
209,凯胜,福建省,泉州市,晋江市,凯胜公司,晋江市陈埭镇宫口万里大道250号3楼,24.798710999999997,118.60672199999999,公司企业;公司;公司,B02530RQPW
210,凯胜,福建省,泉州市,鲤城区,凯胜旱冰场,鲤城区[],24.905466,118.53858999999999,体育休闲服务;运动场馆;溜冰场,B0FFFDZMCK
211,凯胜,福建省,泉州市,石狮市,凯胜织造,石狮市石灵路洋霞辅料市场15号楼4档口,24.740181,118.618351,公司企业;公司;公司,B0FFFYIY91
212,凯胜,福建省,泉州市,泉港区,凯胜金融中心,泉港区祥云中路西50米,25.147167,118.93004599999999,金融保险服务;金融保险服务机构;金融保险机构,B0FFIQFUYJ
213,凯胜,福建省,泉州市,石狮市,vivo(凯胜店),石狮市华中街与金相路交叉口西北50米,24.742329,118.617148,购物服务;家电电子卖场;手机销售,B0FFHKLFEN
214,凯胜,福建省,泉州市,洛江区,泉州凯盛物资回收,洛江区万兴街与安顺路交叉口西南50米,24.937585000000002,118.664879,生活服务;生活服务场所;生活服务场所,B0FFH2VND0
215,凯胜,山东省,日照市,莒县,凯胜车业,莒县日夏线北100米,35.413699,118.76296299999998,汽车销售;汽车销售;汽车销售,B0FFHNDLTK
216,凯胜,山东省,日照市,莒县,凯胜车业,莒县国泰路与芙蓉路交叉口南200米,35.660628,118.830197,汽车销售;汽车销售;汽车销售,B0FFH66QTS
217,凯胜,陕西省,咸阳市,彬县,凯胜壁纸,彬县名仕花园轻工建材市场11号楼18-9,35.032251,108.092991,购物服务;家居建材市场;家居建材市场,B0FFH6B2PN
218,凯胜,陕西省,咸阳市,彬县,凯胜壁纸,彬县名仕花园轻工建材市场11号楼18-9,35.032251,108.092991,购物服务;家居建材市场;家居建材市场,B0FFH6B2PN
219,凯胜,新疆维吾尔自治区,伊犁哈萨克自治州,伊宁市,伊犁志达凯胜汽车销售有限公司,伊宁市解放西路(新世界建材市场往西500米),43.952472,81.28182199999999,汽车销售;汽车销售;汽车销售,B0FFF6A7TW
220,凯胜,新疆维吾尔自治区,伊犁哈萨克自治州,伊宁市,伊犁志达凯胜汽车销售有限公司,伊宁市解放西路(新世界建材市场往西500米),43.952472,81.28182199999999,汽车销售;汽车销售;汽车销售,B0FFF6A7TW
221,凯胜,吉林省,白山市,抚松县,乔士体育,抚松县抚松大街201号,42.333583000000004,127.272926,购物服务;体育用品店;体育用品店,B01B70MEPL
222,凯胜,吉林省,白山市,抚松县,乔士体育,抚松县抚松大街201号,42.333583000000004,127.272926,购物服务;体育用品店;体育用品店,B01B70MEPL
223,凯胜,江西省,南昌市,青云谱区,凯胜门业,青云谱区华东建材大市场26栋113号,28.616862,115.925486,购物服务;家居建材市场;家居建材市场,B0FFG39024
224,凯胜,江西省,南昌市,青山湖区,凯胜广告,青山湖区北京东路谢家村地铁站A出口北20米,28.674543,115.941422,生活服务;生活服务场所;生活服务场所,B0FFHU5JAU
225,凯胜,江西省,南昌市,西湖区,铠盛服饰,西湖区华东商贸城7号楼3楼,28.646843,115.89208799999999,购物服务;购物相关场所;购物相关场所,B0FFGBPTTL
226,凯胜,甘肃省,陇南市,成县,凯盛厨具通风,成县城关镇西关村西小后门西行50米,33.736574,105.72540500000001,购物服务;家居建材市场;厨卫市场,B0FFHU4RTO
227,凯胜,甘肃省,陇南市,成县,凯盛厨具通风,成县城关镇西关村西小后门西行50米,33.736574,105.72540500000001,购物服务;家居建材市场;厨卫市场,B0FFHU4RTO
228,凯胜,河北省,邢台市,桥西区,凯胜安防科技,桥西区育才路110号附近,37.060295,114.47493100000001,购物服务;家电电子卖场;数码电子,B0FFI9MH89
229,凯胜,河北省,邢台市,南宫市,南宫市凯胜毛毡制品有限公司,南宫市垂杨镇南开发区79号,37.211484000000006,115.57494799999999,公司企业;公司;公司,B0FFGA3096
230,凯胜,河北省,邢台市,内丘县,凯盛百货,内丘县朝阳北大街附近,37.291006,114.523127,购物服务;购物相关场所;购物相关场所,B013F0N08D
231,凯胜,河北省,邢台市,桥东区,凯盛钣金喷漆,桥东区南羊市道与龙泉东大街交叉口西150米,37.039086,114.501605,汽车维修;汽车维修;汽车维修,B013F0NOFJ
232,凯胜,云南省,昆明市,富民县,凯胜通讯,富民县农贸路彩玉国际2-7号,25.219261,102.496142,购物服务;家电电子卖场;手机销售,B0FFGPIQE1
233,凯胜,云南省,昆明市,盘龙区,云南凯胜电力监理咨询有限公司,盘龙区人民东路6号新华大厦,25.043041,102.72068,公司企业;公司;公司,B0367073G4
234,凯胜,云南省,昆明市,禄劝彝族苗族自治县,禄劝凯胜电脑科技有限公司,禄劝彝族苗族自治县屏山街道公园尚居S6-1-3,25.557827,102.474905,公司企业;公司;公司,B0FFFV66MV
235,凯胜,云南省,昆明市,呈贡区,凯胜绿城花卉种植有限公司,呈贡区斗南路与殷家村线交叉口北150米,24.908441,102.786199,公司企业;公司;公司,B0FFIKMPXZ
236,凯胜,云南省,昆明市,呈贡区,昆明凯胜苗木种植有限公司,呈贡区彩云中路与斗南路交叉口西200米,24.908348999999998,102.787666,公司企业;公司;公司,B0FFHCR3LD
237,凯胜,云南省,昆明市,官渡区,凯胜191树脂硅橡胶脱模蜡,官渡区昌宏路3号附近,24.987612,102.751576,公司企业;公司;公司,B0FFIKMKKZ
238,凯胜,广东省,揭阳市,榕城区,凯胜数码,榕城区东山村新网民网吧前,23.566654,116.36515700000001,购物服务;家电电子卖场;手机销售,B0FFHU7G6S
239,凯胜,广东省,揭阳市,揭东区,凯胜电脑,揭东区埔世路与724乡道交叉口东南100米,23.623731,116.383978,购物服务;家电电子卖场;数码电子,B0FFG93WLX
240,凯胜,广东省,揭阳市,揭东区,凯胜不锈钢,揭东区桥头路17号附近,23.552483,116.33411699999999,购物服务;家居建材市场;建材五金市场,B0FFH671I6
241,凯胜,广东省,揭阳市,惠来县,凯胜电脑,惠来县广鸣路15号附近,23.035172,116.289956,购物服务;购物相关场所;购物相关场所,B0FFHXPOZ5
242,凯胜,广东省,揭阳市,榕城区,凯胜汽修,榕城区梅云街道双梧吉荣路东兴装饰材料附近,23.51355,116.31017,汽车维修;汽车维修;汽车维修,B0FFH30P0N
243,凯胜,广东省,揭阳市,榕城区,凯胜贸易,榕城区仙马路9附近,23.513172,116.357851,公司企业;公司;公司,B0FFGAO7SO
244,凯胜,宁夏回族自治区,固原市,原州区,凯胜车贷,原州区北京路与惠民路交叉口西100米,36.032478999999995,106.256111,汽车服务;汽车服务相关;汽车服务相关,B0FFHUN53M
245,凯胜,宁夏回族自治区,固原市,原州区,凯胜车贷,原州区北京路与惠民路交叉口西100米,36.032478999999995,106.256111,汽车服务;汽车服务相关;汽车服务相关,B0FFHUN53M
246,凯胜,山西省,吕梁市,孝义市,凯胜电脑部,孝义市建设街413号,37.149359999999994,111.77082,购物服务;家电电子卖场;数码电子,B0FFFPRV0L
247,凯胜,山西省,吕梁市,离石区,凯胜工矿,离石区兴南路16号附近,37.510104999999996,111.13696100000001,购物服务;家居建材市场;建材五金市场,B0FFIZ7QIG
248,凯胜,甘肃省,武威市,凉州区,凯胜机械,凉州区二环西路与祁连大道交叉口东150米,37.93421,102.61646999999999,购物服务;专卖店;专营店,B0FFG4XOQ7
249,凯胜,甘肃省,武威市,凉州区,凯胜机械,凉州区二环西路与祁连大道交叉口东150米,37.93421,102.61646999999999,购物服务;专卖店;专营店,B0FFG4XOQ7
250,凯胜,广东省,江门市,江海区,凯胜国际,江海区东海路48号中环广场5楼B508,22.568235,113.103401,公司企业;公司企业;公司企业,B0FFIMC8W0
251,凯胜,广东省,江门市,江海区,凯胜国际,江海区东海路48号中环广场5楼B508,22.568235,113.103401,公司企业;公司企业;公司企业,B0FFIMC8W0
252,凯胜,山西省,太原市,杏花岭区,凯胜出国移民留学,杏花岭区府西街9号王府商务大厦A座10层,37.874164,112.558898,生活服务;生活服务场所;生活服务场所,B015F14KPF
253,凯胜,山西省,太原市,万柏林区,汾酒五粮液(凯胜店),万柏林区和平北路13号,37.860576,112.51055500000001,购物服务;专卖店;烟酒专卖店,B0FFFTBIBZ
254,凯胜,内蒙古自治区,锡林郭勒盟,锡林浩特市,凯胜家纺(锡盟·维多利广场),锡林浩特市光明街与额尔敦路交叉口锡盟·维多利广场F4层,43.941579,116.07958400000001,购物服务;购物相关场所;购物相关场所,B0FFH22S7D
255,凯胜,内蒙古自治区,锡林郭勒盟,锡林浩特市,凯胜家纺(锡盟·维多利广场),锡林浩特市光明街与额尔敦路交叉口锡盟·维多利广场F4层,43.941579,116.07958400000001,购物服务;购物相关场所;购物相关场所,B0FFH22S7D
256,凯胜,山西省,晋中市,榆次区,晋中凯胜建筑开发有限公司,榆次区环城南路南50米,37.653034999999996,112.72718300000001,公司企业;公司;公司,B0FFICD3J2
257,凯胜,山西省,晋中市,榆次区,山西凯胜特纺织机械有限公司,榆次区华益巷101号熙园小区1号楼1单元1803室,37.693476000000004,112.72192,公司企业;公司;公司,B0FFGXHG7K
258,凯胜,甘肃省,临夏回族自治州,永靖县,凯胜家电,永靖县川东路与川中路交叉口东北50米燕归来商城,35.938848,103.322393,购物服务;家电电子卖场;家电电子卖场,B0FFG6DFK6
259,凯胜,甘肃省,临夏回族自治州,永靖县,凯胜家电,永靖县川东路与川中路交叉口东北50米燕归来商城,35.938848,103.322393,购物服务;家电电子卖场;家电电子卖场,B0FFG6DFK6
260,凯胜,青海省,西宁市,城中区,凯胜羽毛球专卖(黑马体育馆凯胜店),城中区体育馆黑马体育,36.62126,101.772906,购物服务;专卖店;专营店,B0FFGB8HQ4
261,凯胜,青海省,西宁市,城中区,凯胜羽毛球专卖(黑马体育馆凯胜店),城中区体育馆黑马体育,36.62126,101.772906,购物服务;专卖店;专营店,B0FFGB8HQ4
262,凯胜,山东省,菏泽市,曹县,凯胜农业,曹县建设路南50米,34.680496999999995,115.795231,购物服务;购物相关场所;购物相关场所,B0FFIV3K3C
263,凯胜,山东省,菏泽市,牡丹区,凯胜宾馆,牡丹区沙土镇裕城路沙土车站西北方向80米,35.272711,115.749803,住宿服务;住宿服务相关;住宿服务相关,B0FFILDCT5
264,凯胜,山东省,菏泽市,牡丹区,菏泽凯胜汽车销售服务有限公司,牡丹区昆明路北段2999号中汇国际汽车园,35.280357,115.42368799999998,汽车销售;通用特约销售;别克销售|汽车维修;通用特约维修;别克维修,B0FFGHLK0G
265,凯胜,山东省,菏泽市,巨野县,凯胜大酒店,巨野县王寨村连荷线中国电信东北侧,35.284295,115.89193200000001,住宿服务;宾馆酒店;宾馆酒店,B0FFHGS4H9
266,凯胜,山东省,菏泽市,曹县,凯胜合作社,曹县青堌集镇韩西村,34.632126,115.76398700000001,政府机构及社会团体;社会团体;社会团体相关,B0FFGXD1JA
267,凯胜,河北省,张家口市,桥西区,凯胜物资,桥西区西苑中路37号-2、-1,40.786113,114.87316299999999,购物服务;家居建材市场;建材五金市场,B0FFG4V0M3
268,凯胜,河北省,张家口市,桥东区,凯胜五金建材,桥东区富强路与盛华西大街交叉口西50米,40.775568,114.89208,购物服务;家居建材市场;建材五金市场,B0FFFP3NJ2
269,凯胜,湖南省,郴州市,临武县,凯胜商行,临武县水务局1号,25.275485,112.56988500000001,购物服务;专卖店;烟酒专卖店,B02DF0NLAE
270,凯胜,湖南省,郴州市,嘉禾县,凯胜装饰有限公司,嘉禾县晋屏北路西150米,25.590421,112.361659,公司企业;公司;公司,B0FFFRQJPI
271,凯胜,江苏省,常州市,溧阳市,江苏坤太凯胜新能源,溧阳市溧城镇燕山中路28号福田中心20楼2001-3,31.4081,119.47691100000002,公司企业;公司;公司,B0FFGPIEIG
272,凯胜,江苏省,常州市,武进区,凯胜行汽车维修服务中心,武进区鸣新中路南50米,31.675459000000004,119.96978700000001,汽车维修;汽车综合维修;汽车综合维修,B0FFI0WDF0
273,凯胜,山东省,枣庄市,市中区,凯胜水暖,市中区北安西路北50米,34.890201,117.53281499999999,购物服务;家居建材市场;建材五金市场,B0FFG85QLS
274,凯胜,山东省,枣庄市,滕州市,凯胜汽修厂,滕州市汇龙和谐康城南500米路东(新妇幼对过),35.077249,117.193175,汽车维修;汽车维修;汽车维修,B0FFGP9JFK
275,凯胜,河北省,保定市,莲池区,凯胜时代厨具,莲池区东二环622号附近,38.845812,115.5404,购物服务;家居建材市场;厨卫市场,B0FFHO8URN
276,凯胜,河北省,保定市,高碑店市,凯胜布行,高碑店市白沟镇服饰辅料城B14-4号(建行对面),39.115210999999995,116.031929,购物服务;家居建材市场;布艺市场,B0FFIK9PVG
277,凯胜,河北省,保定市,曲阳县,凯胜劳务,曲阳县滨河小区,38.622039,114.709529,生活服务;人才市场;人才市场,B0FFG73F7Q
278,凯胜,河北省,保定市,高碑店市,凯胜投资理财服务,高碑店市白沟镇团结路芳磊超市往北拐直行200米路西,39.125406,116.025994,金融保险服务;金融保险服务机构;金融保险机构,B0FFHWGF34
279,凯胜,河北省,保定市,安新县,凯盛国宾温泉度假村,安新县旅游东路北侧,38.945789000000005,115.95797900000001,住宿服务;住宿服务相关;住宿服务相关|体育休闲服务;度假疗养场所;度假村,B013801ZZX
280,凯胜,陕西省,榆林市,府谷县,凯胜体育,府谷县人民南路与天府路交叉口东北50米,39.026965999999994,111.07847,购物服务;购物相关场所;购物相关场所,B0FFH1PUMX
281,凯胜,陕西省,榆林市,府谷县,凯胜体育,府谷县人民南路与天府路交叉口东北50米,39.026965999999994,111.07847,购物服务;购物相关场所;购物相关场所,B0FFH1PUMX
282,凯胜,河南省,濮阳市,华龙区,凯胜家政,华龙区五一东路与马颊河北路交叉口东北100米,35.784247,115.059618,生活服务;中介机构;中介机构,B0FFHPYCMP
283,凯胜,河南省,濮阳市,华龙区,凯胜家政,华龙区五一东路与马颊河北路交叉口东北100米,35.784247,115.059618,生活服务;中介机构;中介机构,B0FFHPYCMP
284,凯胜,河北省,承德市,丰宁满族自治县,凯胜文化用品,丰宁满族自治县大阁镇三中门口,41.213644,116.64905300000001,购物服务;购物相关场所;购物相关场所,B0FFH37GLZ
285,凯胜,河北省,承德市,丰宁满族自治县,凯胜文化用品,丰宁满族自治县大阁镇三中门口,41.213644,116.64905300000001,购物服务;购物相关场所;购物相关场所,B0FFH37GLZ
286,凯胜,甘肃省,白银市,白银区,凯胜体育(公园路),白银区公园路815号,36.550312,104.176787,购物服务;体育用品店;体育用品店,B03AF00382
287,凯胜,甘肃省,白银市,白银区,凯盛汽车美容装饰,白银区上海路国芳世贸花园南350米,36.540603000000004,104.144104,汽车服务;汽车养护/装饰;汽车养护,B0FFFZTNYL
288,凯胜,安徽省,宿州市,萧县,凯盛家纺(淮海西路),萧县淮海路城隍庙南门,34.184551,116.944923,购物服务;家居建材市场;布艺市场,B0FFGMFRGH
289,凯胜,安徽省,宿州市,萧县,凯盛家纺(淮海西路),萧县淮海路城隍庙南门,34.184551,116.944923,购物服务;家居建材市场;布艺市场,B0FFGMFRGH
290,凯胜,湖南省,怀化市,鹤城区,凯胜羽毛球专卖(路人体育用品店),鹤城区人民南路179号(天桥2楼),27.5464,109.96649,购物服务;购物相关场所;购物相关场所,B0FFHRCOI3
291,凯胜,湖南省,怀化市,鹤城区,凯胜羽毛球专卖(路人体育用品店),鹤城区人民南路179号(天桥2楼),27.5464,109.96649,购物服务;购物相关场所;购物相关场所,B0FFHRCOI3
292,凯胜,河南省,平顶山市,宝丰县,凯胜汽修,宝丰县032县道与207国道交叉口西南100米,33.937863,112.881928,汽车维修;汽车综合维修;汽车综合维修,B0FFG4JROB
293,凯胜,河南省,平顶山市,宝丰县,凯胜汽修,宝丰县032县道与207国道交叉口西南100米,33.937863,112.881928,汽车维修;汽车综合维修;汽车综合维修,B0FFG4JROB
294,凯胜,宁夏回族自治区,银川市,灵武市,凯胜布艺,灵武市城区街道西平路二建城市花园东100米,38.098123,106.332733,购物服务;家居建材市场;布艺市场,B0FFFZ28I7
295,凯胜,宁夏回族自治区,银川市,永宁县,凯胜汽车维修服务中心,永宁县望远工业园区望远大道东侧望银路,38.36414,106.265267,汽车维修;汽车综合维修;汽车综合维修,B0FFHKYZL9
296,凯胜,宁夏回族自治区,银川市,兴庆区,凯胜宾馆停车场,兴庆区文化东街171号附近,38.46733,106.286798,交通设施服务;停车场;公共停车场,B03B703VAN
297,凯胜,宁夏回族自治区,银川市,兴庆区,金凯胜工贸,兴庆区湖滨东街东盛苑6-2号营业房,38.466157,106.30158999999999,公司企业;公司企业;公司企业,B0FFFX1T5Y
298,凯胜,广东省,清远市,清城区,凯胜羽毛球专卖(奥林体育店),清城区新城赢之城(名店街)D1-078,23.680298,113.05413300000001,购物服务;购物相关场所;购物相关场所,B0FFGSWKJ6
299,凯胜,广东省,清远市,清城区,凯胜羽毛球专卖(奥林体育店),清城区新城赢之城(名店街)D1-078,23.680298,113.05413300000001,购物服务;购物相关场所;购物相关场所,B0FFGSWKJ6
300,凯胜,江苏省,徐州市,云龙区,凯胜烟酒,云龙区园梦东路与圆梦北路交叉口西50米,34.264378,117.20960900000001,购物服务;专卖店;烟酒专卖店,B0FFI2G2CL
301,凯胜,江苏省,徐州市,云龙区,凯胜烟酒,云龙区园梦东路与圆梦北路交叉口西50米,34.264378,117.20960900000001,购物服务;专卖店;烟酒专卖店,B0FFI2G2CL
302,凯胜,江苏省,淮安市,盱眙县,凯胜家具城(公交站),盱眙县盱眙8路,33.006240999999996,118.57457,交通设施服务;公交车站;公交车站相关,BV10700267
303,凯胜,江苏省,淮安市,淮阴区,凯盛科技,淮阴区镇西路淮安市吴城镇政府东南50米,33.51378,118.80908000000001,购物服务;家电电子卖场;数码电子,B0FFG0L3X2
304,凯胜,安徽省,宣城市,郎溪县,郎溪凯胜商务宾馆,郎溪县十字铺方边村(原方圆会所),30.977505999999998,119.119725,住宿服务;住宿服务相关;住宿服务相关,B0FFG7UYBN
305,凯胜,安徽省,宣城市,宣州区,凯胜工程咨询,宣州区水阳江大道3号附近,30.934183,118.739752,公司企业;公司;公司,B0FFG3DWKT
306,凯胜,湖南省,岳阳市,岳阳楼区,凯胜羽毛球馆,岳阳楼区东茅岭街道步行街北辅道公路驾校,29.375909000000004,113.10668700000001,体育休闲服务;运动场馆;羽毛球场,B0FFG818TK
307,凯胜,湖南省,岳阳市,岳阳楼区,凯胜羽毛球馆,岳阳楼区东茅岭街道步行街北辅道公路驾校,29.375909000000004,113.10668700000001,体育休闲服务;运动场馆;羽毛球场,B0FFG818TK
308,凯胜,四川省,泸州市,江阳区,泸州凯胜机电综合经营部,江阳区前进下路5号楼5号,28.876523,105.451705,购物服务;专卖店;专营店,B0FFFSJE1D
309,凯胜,四川省,泸州市,江阳区,泸州凯胜机电综合经营部,江阳区前进下路5号楼5号,28.876523,105.451705,购物服务;专卖店;专营店,B0FFFSJE1D
310,凯胜,山西省,朔州市,右玉县,凯盛食府,右玉县新城镇玉环西街民福苑附近,39.990152,112.452598,餐饮服务;中餐厅;综合酒楼,B0FFHIBOZQ
311,凯胜,山西省,朔州市,右玉县,凯盛食府,右玉县新城镇玉环西街民福苑附近,39.990152,112.452598,餐饮服务;中餐厅;综合酒楼,B0FFHIBOZQ
312,凯胜,广东省,中山市,中山市,凯胜装饰,中山市石岐区街道兴利路1号中海锦城民富路15号,22.550327,113.37921999999999,购物服务;家居建材市场;建材五金市场,B0FFGWXJ9D
313,凯胜,广东省,中山市,中山市,凯胜五金加工店,中山市花样年华西南50米(升辉南路东),22.695997,113.302302,购物服务;家居建材市场;家居建材市场,B0FFHDC3DJ
314,凯胜,广东省,中山市,中山市,凯胜红木家具,中山市大涌镇兴华路72号伟成轩左拐100米,22.483727,113.281154,购物服务;家居建材市场;家具城,B0FFI5QCZW
315,凯胜,广东省,中山市,中山市,凯胜厂,中山市三角镇高平大道96号,22.692976,113.46554099999999,公司企业;公司企业;公司企业,B0FFGIYT65
316,凯胜,广东省,中山市,中山市,凯胜机械厂,中山市黄圃镇兴圃大道中70号力圣机械厂内(第五车间),22.69312,113.35803999999999,公司企业;工厂;工厂,B0FFGBY30Z
317,凯胜,广东省,中山市,中山市,凯胜玻璃钢化,中山市横栏镇新茂工区庆龙大道34号,22.543141000000002,113.24093500000001,公司企业;公司;公司,B0FFH2H6YA
318,凯胜,广东省,中山市,中山市,中山凯胜晟达建材有限公司,中山市齐东正街1号附近,22.521031,113.412929,公司企业;公司;公司,B0FFHBZXYP
319,凯胜,四川省,乐山市,市中区,凯胜汽配维修,市中区305省道南50米,29.528059000000002,103.87489000000001,汽车维修;汽车维修;汽车维修,B0FFHXOSPM
320,凯胜,四川省,乐山市,沐川县,中国移动(凯胜营业厅),沐川县建设街158号,28.956840999999997,103.901865,生活服务;电讯营业厅;中国移动营业厅,B03410OH0A
321,凯胜,山东省,东营市,东营区,凯胜军品专营,东营区北二路532号青山小区大门西,37.471555,118.523835,购物服务;专卖店;专营店,B0FFG28EW2
322,凯胜,山东省,东营市,广饶县,广饶凯胜汽车销售有限公司,广饶县潍高路789号汇通机动车交易市场,37.031764,118.430885,汽车销售;汽车销售;汽车销售,B0FFGXJCH4
323,凯胜,江西省,景德镇市,珠山区,凯胜标致雪铁龙技术维修中心,珠山区新村街道梨树园南苑后门,29.311906,117.22316399999998,公司企业;公司企业;公司企业,B0FFH3DFJC
324,凯胜,江西省,景德镇市,珠山区,景德镇凯胜陶瓷有限公司,珠山区天宝桥桥头物流区,29.280655,117.22008000000001,公司企业;公司;公司,B0FFGNBV67
325,凯胜,山东省,济宁市,金乡县,凯胜超市,金乡县金乡街道体委永和豆浆对面,35.068739,116.309266,购物服务;购物相关场所;购物相关场所,B0FFH2ZJIM
326,凯胜,山东省,济宁市,泗水县,凯胜手机,泗水县泉林镇潘坡泉源路御苑宾馆西北200米,35.624221999999996,117.51053799999998,购物服务;家电电子卖场;手机销售,B0FFFZKAJY
327,凯胜,山东省,济宁市,金乡县,凯胜批发中心,金乡县[],35.047268,116.31943999999999,购物服务;购物相关场所;购物相关场所,B0FFIWC7QM
328,凯胜,山东省,济宁市,泗水县,中国移动(凯胜店),泗水县327国道东50米,35.625182,117.50974699999999,购物服务;家电电子卖场;手机销售,B02190B99A
329,凯胜,山东省,济宁市,汶上县,凯胜石材厂,汶上县白石镇工业园区,35.788618,116.64346299999998,公司企业;公司企业;公司企业,B0FFHKY4D5
330,凯胜,山东省,济宁市,汶上县,凯胜通讯,汶上县南市街与尚书路交叉口西南50米,35.727714,116.501391,生活服务;维修站点;维修站点,B0FFG1YEEA
331,凯胜,山东省,济宁市,汶上县,凯胜手机维修,汶上县中都大街与园丁街交叉口东南50米,35.724975,116.494281,生活服务;生活服务场所;生活服务场所,B0FFIDDPIP
332,凯胜,山东省,济宁市,任城区,凯胜科技信息咨询有限公司,任城区金宇路54号创意大厦4楼,35.430245,116.63266599999999,公司企业;公司;公司,B0FFGJ6T4H
333,凯胜,山东省,济宁市,金乡县,凯盛便民超市,金乡县县医院东门向南100米路西,35.056709999999995,116.318933,购物服务;超级市场;超市,B0FFIWV5QC
334,凯胜,甘肃省,天水市,秦州区,凯胜五金建材,秦州区合作北路与新华路交叉口西南100米,34.583969,105.732219,购物服务;家居建材市场;建材五金市场,B0FFGZVVAA
335,凯胜,甘肃省,天水市,秦州区,凯胜五金建材,秦州区合作北路与新华路交叉口西南100米,34.583969,105.732219,购物服务;家居建材市场;建材五金市场,B0FFGZVVAA
336,凯胜,山东省,济南市,槐荫区,凯胜干杂调料批发部,槐荫区[],36.700478000000004,116.927681,购物服务;综合市场;综合市场,B0FFHMEMAF
337,凯胜,山东省,济南市,历城区,济南凯胜光缆有限公司,历城区唐王镇工业园南区,36.807355,117.32154299999999,公司企业;公司;公司,B02130XBHB
338,凯胜,河南省,三门峡市,湖滨区,凯胜汽车服务,湖滨区分陕路168号,34.798088,111.16883600000001,汽车服务;汽车服务相关;汽车服务相关,B0FFHDUQ53
339,凯胜,河南省,三门峡市,湖滨区,长安轻型车三门峡凯胜店,湖滨区分陕路168号附近,34.798125,111.16886000000001,汽车销售;汽车销售;汽车销售,B0FFIRUYL5
340,凯胜,广西壮族自治区,桂林市,秀峰区,凯胜(杉湖北路),秀峰区叠彩街道正阳路5号,25.2748,110.297533,购物服务;体育用品店;体育用品店,B0FFH0LOIL
341,凯胜,广西壮族自治区,桂林市,秀峰区,凯胜(杉湖北路),秀峰区叠彩街道正阳路5号,25.2748,110.297533,购物服务;体育用品店;体育用品店,B0FFH0LOIL
342,凯胜,河北省,邯郸市,丛台区,凯胜照明,丛台区鑫港国际电气城C-1348,36.641386,114.517827,购物服务;家居建材市场;灯具瓷器市场,B0FFI7FRDL
343,凯胜,河北省,邯郸市,邯山区,凯胜药房,邯山区315省道汇福吉超市旁,36.462369,114.475796,医疗保健服务;医药保健销售店;药房,B0FFHBHSBB
344,凯胜,河北省,邯郸市,峰峰矿区,凯胜汽车修理有限公司,峰峰矿区太行东路(后马路)烟草公司东行100米路北,36.423609,114.2265,汽车维修;汽车综合维修;汽车综合维修,B01360NNY1
345,凯胜,海南省,海口市,美兰区,凯胜烟酒行,美兰区大英山西二街2号2-106号铺面,20.020306,110.34964099999999,购物服务;专卖店;烟酒专卖店,B0FFF9O1IF
346,凯胜,海南省,海口市,龙华区,凯胜通汽修,龙华区苍西村附近,19.969414999999998,110.298717,汽车维修;汽车综合维修;汽车综合维修,B0FFHJXSOZ
347,凯胜,海南省,海口市,美兰区,海南凯胜航空售票处,美兰区大英山西二街2号2-106号铺面,20.020392,110.349522,生活服务;售票处;飞机票代售点,B0FFFEVML6
348,凯胜,海南省,海口市,龙华区,凯胜琼菜城,龙华区龙华路13号金丽城3层(友谊广场旁),20.037275,110.3368,餐饮服务;中餐厅;广东菜(粤菜),B0FFFEW947
349,凯胜,海南省,海口市,美兰区,海南凯胜航空售票中心,美兰区蓝天路12号银龙大厦1层,20.021109,110.346547,生活服务;生活服务场所;生活服务场所,B0FFGSX2DU
350,凯胜,吉林省,白城市,洮北区,凯胜羽毛球专卖(运动家凯胜店),洮北区运动家体育海明东路12号,45.615675,122.84077099999999,购物服务;购物相关场所;购物相关场所,B0FFGNHHDN
351,凯胜,吉林省,白城市,洮南市,凯盛海鲜自助烤肉,洮南市宏声西路121号,45.333735,122.790628,餐饮服务;中餐厅;特色/地方风味餐厅,B0FFFTV5EA
352,凯胜,湖南省,衡阳市,蒸湘区,凯胜羽毛球(炳仲体育店),蒸湘区常胜西路炳仲体育,26.898739000000003,112.594249,购物服务;体育用品店;体育用品店,B0FFG2A7VJ
353,凯胜,湖南省,衡阳市,蒸湘区,凯胜名车,蒸湘区315省道南50米,26.904145,112.51926,汽车销售;汽车销售;汽车销售,B0FFIWI85O
354,凯胜,湖南省,衡阳市,耒阳市,凯盛家居馆,耒阳市蔡伦北路64-66号,26.412052000000003,112.851805,购物服务;家居建材市场;布艺市场,B0FFG40MBR
355,凯胜,吉林省,延边朝鲜族自治州,敦化市,品牌车·出租车凯胜服务站,敦化市敖东大街2432号,43.357568,128.228601,汽车服务;汽车服务相关;汽车服务相关,B0FFHIUCLJ
356,凯胜,吉林省,延边朝鲜族自治州,敦化市,凯胜名车生活馆(敖东大街),敦化市敖东大街汽贸城院内,43.357383,128.229217,汽车服务;汽车养护/装饰;汽车养护,B0FFFYRS0P
357,凯胜,吉林省,延边朝鲜族自治州,敦化市,凯胜名车生活馆(审计胡同),敦化市敖东大街与阳光胡同交叉口东150米,43.357535999999996,128.229919,汽车服务;汽车养护/装饰;汽车养护,B0FFGW3XAG
358,凯胜,辽宁省,鞍山市,铁东区,凯胜渔具店,铁东区青年街8号,41.115472,122.989847,购物服务;购物相关场所;购物相关场所,B0FFHTJL16
359,凯胜,辽宁省,鞍山市,铁东区,凯胜法尔胜,铁东区工人街46栋1号,41.094601000000004,122.985174,公司企业;公司企业;公司企业,B0FFHIXBJJ
360,凯胜,辽宁省,鞍山市,铁东区,凯胜凡尔赛10号楼,铁东区凯圣·凡尔赛凯胜凡尔赛10号楼,41.093522,122.983521,地名地址信息;门牌信息;楼栋号,B0FFF7NX89
361,凯胜,辽宁省,鞍山市,立山区,凯圣休闲网咖旗舰店,立山区双山街道劳动大厦前50米胜利路沿线,41.138779,123.017655,体育休闲服务;娱乐场所;网吧,B0FFHWYFFH
362,凯胜,辽宁省,鞍山市,海城市,凯盛农汽修理部,海城市307省道南50米,41.137513,122.661294,汽车服务;汽车服务相关;汽车服务相关,B0FFG13YAS
363,凯胜,湖北省,黄冈市,红安县,凯胜塑钢门窗,红安县觅儿镇大岔路东138号,31.057071999999998,114.574055,购物服务;家居建材市场;建材五金市场,B0FFH6HKZR
364,凯胜,湖北省,黄冈市,红安县,凯胜塑钢门窗,红安县觅儿镇大岔路东138号,31.057071999999998,114.574055,购物服务;家居建材市场;建材五金市场,B0FFH6HKZR
365,凯胜,河南省,信阳市,淮滨县,凯胜工作室,淮滨县乌龙大道与337省道交叉口东100米淮滨县物资管理局附近,32.454974,115.417695,生活服务;美容美发店;美容美发店,B0FFJ084NJ
366,凯胜,河南省,信阳市,淮滨县,凯胜工作室,淮滨县乌龙大道与337省道交叉口东100米淮滨县物资管理局附近,32.454974,115.417695,生活服务;美容美发店;美容美发店,B0FFJ084NJ
367,凯胜,福建省,莆田市,涵江区,凯胜背景墙(涵江旗舰店),涵江区高林街232号,25.456660999999997,119.09904099999999,购物服务;家居建材市场;建材五金市场,B0FFH0W4I3
368,凯胜,福建省,莆田市,涵江区,凯胜镀膜厂,涵江区后东坡村丰悦纸厂,25.486662,119.099701,公司企业;公司企业;公司企业,B0FFHJ0GC6
369,凯胜,河北省,秦皇岛市,抚宁区,凯胜农家乐,抚宁区落轮峪村28号,40.118446,119.293621,餐饮服务;中餐厅;中餐厅,B0FFF8P82D
370,凯胜,河北省,秦皇岛市,抚宁区,凯胜农家乐,抚宁区落轮峪村28号,40.118446,119.293621,餐饮服务;中餐厅;中餐厅,B0FFF8P82D
371,凯胜,安徽省,铜陵市,郊区,凯胜体育,郊区铜官区翠竹园路西150米,30.93967,117.824458,购物服务;体育用品店;体育用品店,B0FFHU12Y6
372,凯胜,安徽省,铜陵市,郊区,凯胜体育,郊区铜官区翠竹园路西150米,30.93967,117.824458,购物服务;体育用品店;体育用品店,B0FFHU12Y6
373,凯胜,湖南省,永州市,东安县,东安县凯胜铝合金店,东安县同心路178,26.393085,111.303077,购物服务;家居建材市场;建材五金市场,B0FFGDI0F2
374,凯胜,湖南省,永州市,祁阳县,凯胜鞋厂,祁阳县浯溪街道伯爵幼儿园,26.554036,111.848299,公司企业;公司企业;公司企业,B0FFHC1EB0
375,凯胜,河南省,新乡市,卫滨区,凯胜超市,卫滨区016乡道西50米,35.286188,113.832922,购物服务;便民商店/便利店;便民商店/便利店,B0175020A5
376,凯胜,河南省,新乡市,原阳县,凯胜办公,原阳县建设路北50米,35.052729,113.973744,购物服务;购物相关场所;购物相关场所,B0FFHXN4N3
377,凯胜,河南省,新乡市,新乡县,凯胜电气,新乡县小冀镇幸福里楼下,35.181255,113.77001100000001,购物服务;家居建材市场;建材五金市场,B0FFIMPF94
378,凯胜,河南省,新乡市,封丘县,赵凯胜诊所,封丘县振兴路1317号附近,35.038669,114.43405,医疗保健服务;诊所;诊所,B0FFFSZPZH
379,凯胜,河南省,新乡市,牧野区,新乡市凯胜电子科技有限公司,牧野区中原路181号黎明大厦4层409,35.312996000000005,113.88464099999999,公司企业;公司;网络科技,B0FFFGNKVJ
380,凯胜,河南省,新乡市,红旗区,凯胜·东明羽毛球馆(红旗区电子局家属院东),红旗区平原路牌坊街3号,35.302428000000006,113.894147,体育休闲服务;运动场馆;羽毛球场,B0175020NR
381,凯胜,四川省,广安市,广安区,铠圣源门窗装饰,广安区西溪西区安置房竹山巷1-1618号,30.454517,106.620269,生活服务;生活服务场所;生活服务场所,B0FFGE9EBJ
382,凯胜,四川省,广安市,广安区,铠圣源门窗装饰,广安区西溪西区安置房竹山巷1-1618号,30.454517,106.620269,生活服务;生活服务场所;生活服务场所,B0FFGE9EBJ
383,凯胜,内蒙古自治区,赤峰市,敖汉旗,凯盛足道会馆,敖汉旗新惠镇新惠路敖汉国宾馆西南150米,42.289521,119.91636000000001,生活服务;洗浴推拿场所;洗浴推拿场所,B0FFIGB2JD
384,凯胜,内蒙古自治区,赤峰市,敖汉旗,凯盛足道会馆,敖汉旗新惠镇新惠路敖汉国宾馆西南150米,42.289521,119.91636000000001,生活服务;洗浴推拿场所;洗浴推拿场所,B0FFIGB2JD
385,凯胜,黑龙江省,伊春市,南岔区,凯胜喷绘,南岔区通山路136号附近,47.138253000000006,129.281504,生活服务;生活服务场所;生活服务场所,B0FFG3Z4BM
386,凯胜,黑龙江省,伊春市,南岔区,凯胜喷绘,南岔区通山路136号附近,47.138253000000006,129.281504,生活服务;生活服务场所;生活服务场所,B0FFG3Z4BM
387,凯胜,浙江省,温州市,苍南县,凯胜羽毛球,苍南县科宝·博洛尼(旗舰店)附近,27.52352,120.42766,体育休闲服务;运动场馆;羽毛球场,B0FFG2589G
388,凯胜,浙江省,温州市,龙湾区,凯胜鞋厂,龙湾区龙湾状元三期工业区大自然路9号2楼,27.962218,120.75263899999999,公司企业;公司企业;公司企业,B0FFHO2RU9
389,凯胜,浙江省,温州市,苍南县,凯胜投资咨询有限公司,苍南县人民路14-20号附近,27.511057,120.539042,金融保险服务;金融保险服务机构;金融保险机构,B0FFH7KF5H
390,凯胜,浙江省,温州市,龙湾区,凯胜光学有限公司,龙湾区楠溪江路与玉苍路交叉口西南50米,27.983729999999998,120.71463999999999,公司企业;公司;公司,B0FFGBUBP7
391,凯胜,浙江省,温州市,永嘉县,凯胜服装辅料有限公司,永嘉县马岙北路19号,28.064090999999998,120.63541000000001,公司企业;公司;公司,B02410Z89W
392,凯胜,浙江省,温州市,苍南县,凯胜轮胎服务中心,苍南县家堡一街与沪山西路交叉口东南50米,27.511531,120.398624,汽车服务;汽车配件销售;汽车配件销售,B0FFGPLYDX
393,凯胜,浙江省,温州市,苍南县,苍南县凯胜小球运动俱乐部,苍南县灵溪镇蓝天幼儿园(春晖路),27.524338,120.427327,体育休闲服务;运动场馆;运动场所,B0FFHFAH3W
394,凯胜,浙江省,温州市,鹿城区,凯盛公寓,鹿城区金丝桥路,27.999951,120.669908,商务住宅;住宅区;住宅小区,B024102DE4
395,凯胜,四川省,甘孜藏族自治州,九龙县,凯胜装修装饰,九龙县Z005附近,28.474429999999998,101.744589,生活服务;生活服务场所;生活服务场所,B0FFG1I8LE
396,凯胜,四川省,甘孜藏族自治州,九龙县,凯胜装修装饰,九龙县Z005附近,28.474429999999998,101.744589,生活服务;生活服务场所;生活服务场所,B0FFG1I8LE
397,凯胜,河北省,唐山市,遵化市,凯胜商贸有限公司,遵化市东环南路37号,40.184954,117.96864599999999,购物服务;购物相关场所;购物相关场所,B0FFI105HP
398,凯胜,河北省,唐山市,曹妃甸区,凯盛通讯,曹妃甸区垦丰大街移动公司东行30米第一实验小学对面,39.272295,118.45208400000001,购物服务;家电电子卖场;手机销售,B0FFF2MCN7
399,凯胜,河北省,唐山市,乐亭县,乐亭县凯盛汽车修理,乐亭县柏庄抚昌乐路城堡精灵幼儿园东450米,39.426359000000005,118.92728899999999,汽车维修;汽车综合维修;汽车综合维修,B0FFG2FZO3
400,凯胜,黑龙江省,齐齐哈尔市,龙沙区,凯胜门窗,龙沙区民航路水果市场南门西100米,47.321528,123.94816000000002,购物服务;家居建材市场;建材五金市场,B0FFFW9NVU
401,凯胜,黑龙江省,齐齐哈尔市,讷河市,凯胜不锈钢装饰,讷河市建设路161号附近,48.477447999999995,124.8808,购物服务;家居建材市场;家居建材市场,B0FFG37DHB
402,凯胜,浙江省,金华市,浦江县,凯胜蓬业,浦江县安平路西50米,29.477954999999998,120.08583600000001,购物服务;购物相关场所;购物相关场所,B0FFHYGTJA
403,凯胜,浙江省,金华市,婺城区,凯胜便利店,婺城区北山路与畅达街交叉口西50米,29.120908,119.63879399999999,购物服务;专卖店;烟酒专卖店,B0FFFX055Y
404,凯胜,浙江省,金华市,永康市,凯胜办公文体用品批发部,永康市金城路298-302号,28.888875,120.051658,购物服务;文化用品店;文化用品店,B024303RTJ
405,凯胜,浙江省,金华市,义乌市,凯胜楼旅馆,义乌市城店路477号(近六瑞堂路),29.287819,120.05326799999999,住宿服务;旅馆招待所;旅馆招待所,B024317B5Q
406,凯胜,浙江省,金华市,义乌市,凯胜房产,义乌市雪峰西路196号,29.318278999999997,120.060317,生活服务;中介机构;中介机构,B0FFHS61SD
407,凯胜,浙江省,金华市,东阳市,凯胜安居宝玛,东阳市画水镇画溪二村,29.187886,120.163312,商务住宅;商务住宅相关;商务住宅相关,B0FFHNNJZ7
408,凯胜,浙江省,金华市,兰溪市,浙江凯胜生物药业有限公司,兰溪市建兰路2,29.22295,119.39948400000002,公司企业;公司;医药公司,B02430IIG5
409,凯胜,浙江省,金华市,东阳市,东阳凯胜家具有限公司,东阳市永金路9号,29.272066,120.199475,公司企业;公司;公司,B0FFI0OJT1
410,凯胜,浙江省,金华市,东阳市,东阳凯胜家具有限公司(西北门),东阳市人民北路东50米,29.298403999999998,120.24896100000001,通行设施;临街院门;临街院正门,B0FFHX8CYR
411,凯胜,浙江省,金华市,东阳市,中国移动(花园指定专营店),东阳市万兴路20号,29.118031,120.22356,购物服务;家电电子卖场;手机销售,B0FFHQ2V4I
412,凯胜,湖南省,张家界市,慈利县,凯胜花苑营销中心,慈利县环城南路147号附近,29.422339,111.1328,生活服务;生活服务场所;生活服务场所,B0FFHFVQC6
413,凯胜,湖南省,张家界市,慈利县,凯胜花苑营销中心,慈利县环城南路147号附近,29.422339,111.1328,生活服务;生活服务场所;生活服务场所,B0FFHFVQC6
414,凯胜,内蒙古自治区,鄂尔多斯市,达拉特旗,凯胜通讯,达拉特旗邮电局对面,40.400626,110.035766,购物服务;购物相关场所;购物相关场所,B0FFI74KHL
415,凯胜,内蒙古自治区,鄂尔多斯市,东胜区,凯胜轴承螺丝大全,东胜区杭锦北路11号街坊2号楼,39.822076,109.99769599999999,购物服务;家居建材市场;建材五金市场,B01DD004NK
416,凯胜,内蒙古自治区,鄂尔多斯市,达拉特旗,凯胜手机专业维修,达拉特旗锡尼街77-4附近,40.400611,110.03573300000001,生活服务;维修站点;维修站点,B01DD0IMD7
417,凯胜,山东省,淄博市,张店区,凯胜文体(潘南路店),张店区潘南西路20号甲3,36.81728,118.053877,购物服务;文化用品店;文化用品店,B02150QQMT
418,凯胜,山东省,淄博市,张店区,凯胜文体(东一路店),张店区东一路12号-甲-12,36.793221,118.06223100000001,购物服务;文化用品店;文化用品店,B0FFF2X5EN
419,凯胜,山东省,淄博市,张店区,凯胜文体(淄博总店),张店区杏园东路5号楼2单元洪沟路21甲3,36.791509000000005,118.07000500000001,购物服务;文化用品店;文化用品店,B021502UPE
420,凯胜,山东省,淄博市,沂源县,沂源凯胜农资,沂源县236省道附近,36.185128000000006,118.19336000000001,购物服务;购物相关场所;购物相关场所,B0FFIY7GLI
421,凯胜,山东省,淄博市,淄川区,凯胜耐材,淄川区乾龙琉璃瓦有限公司附近,36.653332,117.724874,公司企业;公司;公司,B02150QHET
422,凯胜,山东省,淄博市,临淄区,凯胜大酒店(遄台店),临淄区遄台路38号(遄台利群对面),36.813313,118.320821,餐饮服务;中餐厅;综合酒楼,B0215047K0
423,凯胜,山东省,淄博市,临淄区,凯胜汽车美容中心,临淄区辛化路2802号附近,36.818779,118.276949,汽车服务;汽车养护/装饰;汽车养护,B0FFFQ3ALG
424,凯胜,山东省,淄博市,桓台县,山东凯胜电子股份有限公司,桓台县果里镇太极路51号,36.891681,118.091319,公司企业;公司;机械电子,B02150QL6D
425,凯胜,山东省,淄博市,淄川区,凯盛灯饰,淄川区商城西街183号,36.650156,117.95818100000001,购物服务;购物相关场所;购物相关场所,B0FFFYS8Q5
426,凯胜,山东省,淄博市,临淄区,山东凯盛保险代理有限公司(淄博第十七营业部),临淄区管仲路34号,36.793172999999996,118.304172,金融保险服务;保险公司;保险公司,B0FFI6KSYP
427,凯胜,山东省,淄博市,张店区,皇家凯盛木门,张店区鲁中装饰材料城D5-4号,36.783566,118.02074499999999,购物服务;家居建材市场;建材五金市场,B0FFHZXVOC
428,凯胜,湖北省,荆州市,沙市区,凯胜水暖管道配件,沙市区318国道北50米,30.346521000000003,112.247184,购物服务;家居建材市场;建材五金市场,B0FFFOEP93
429,凯胜,湖北省,荆州市,石首市,凯胜不动产,石首市东方大道清江花园大门口附近,29.727361,112.40926,生活服务;中介机构;中介机构,B0FFITBR0U
430,凯胜,湖北省,荆州市,松滋市,凯盛宾馆,松滋市沙道观桥南,30.165557,111.92496200000001,住宿服务;宾馆酒店;宾馆酒店,B02CC0PCOO
431,凯胜,河北省,石家庄市,桥西区,凯胜渔具,桥西区槐安西路280号,38.024722,114.43245800000001,购物服务;专卖店;专营店,B013706RGC
432,凯胜,河北省,石家庄市,桥西区,凯胜渔具,桥西区槐安西路280号,38.024722,114.43245800000001,购物服务;专卖店;专营店,B013706RGC
433,凯胜,黑龙江省,绥化市,肇东市,凯胜生态板,肇东市四明北路与305省道交叉口东南150米,46.076669,125.98710700000001,购物服务;家居建材市场;建材五金市场,B0FFG4AHS2
434,凯胜,黑龙江省,绥化市,肇东市,凯胜生态板,肇东市四明北路与305省道交叉口东南150米,46.076669,125.98710700000001,购物服务;家居建材市场;建材五金市场,B0FFG4AHS2
435,凯胜,江苏省,盐城市,射阳县,凯胜纸业,射阳县双拥路188号,33.766771999999996,120.26499,购物服务;专卖店;专营店,B0FFG8BLOJ
436,凯胜,江苏省,盐城市,亭湖区,凯胜高清偏光太阳镜,亭湖区开放大道95号,33.398083,120.147057,购物服务;购物相关场所;购物相关场所,B0FFHRRX3Q
437,凯胜,江苏省,盐城市,亭湖区,凯胜集团,亭湖区盐才路西200米,33.466176000000004,120.182429,公司企业;公司企业;公司企业,B0FFJ3H3QG
438,凯胜,江苏省,盐城市,大丰区,凯胜机械厂,大丰区大刘公路生态工业园西200米,33.186543,120.40337,公司企业;工厂;工厂,B020316KOL
439,凯胜,云南省,普洱市,宁洱哈尼族彝族自治县,凯胜办公文具,宁洱哈尼族彝族自治县西街与龙潭路交叉口东北50米,23.063309,101.04389499999999,购物服务;购物相关场所;购物相关场所,B0FFFZ0OHC
440,凯胜,云南省,普洱市,宁洱哈尼族彝族自治县,凯胜办公文具,宁洱哈尼族彝族自治县西街与龙潭路交叉口东北50米,23.063309,101.04389499999999,购物服务;购物相关场所;购物相关场所,B0FFFZ0OHC
441,凯胜,贵州省,黔西南布依族苗族自治州,兴义市,凯胜汽车租赁,兴义市人民法院桔山人民法庭,25.125904000000002,104.92295800000001,汽车服务;汽车租赁;汽车租赁,B0FFIWL6WQ
442,凯胜,贵州省,黔西南布依族苗族自治州,兴义市,凯胜汽车租赁,兴义市桔丰路与桔山路交叉口西南50米,25.09692,104.91118999999999,汽车服务;汽车租赁;汽车租赁,B0FFG0RX0Z
443,凯胜,河南省,开封市,顺河回族区,凯胜建材,顺河回族区公园路西50米,34.781802,114.37286100000001,购物服务;家居建材市场;家居建材市场,B0FFFOOKOB
444,凯胜,河南省,开封市,鼓楼区,凯胜羽毛球专卖(国军体育店),鼓楼区和平街与自由路西段交叉口东50米,34.790546,114.35313500000001,购物服务;专卖店;专营店,B017A0N8BK
445,凯胜,河南省,开封市,尉氏县,凯胜汽修,尉氏县河南尉氏三中东南100米(025县道南),34.287277,114.00358700000001,汽车维修;汽车维修;汽车维修,B0FFFVESDX
446,凯胜,安徽省,合肥市,包河区,凯胜羽毛球专卖(合肥大众球馆凯胜店),包河区芜湖路省体育场内大众羽毛球馆,31.849352000000003,117.29927099999999,购物服务;专卖店;专营店,B0FFIOZUBH
447,凯胜,安徽省,合肥市,肥西县,凯胜酒楼,肥西县上派人民西路肥西第三中学东100米,31.713753999999998,117.16265800000001,餐饮服务;中餐厅;中餐厅,B0FFFE7K39
448,凯胜,安徽省,合肥市,庐江县,凯胜酒楼,庐江县移湖北路融和家园北门南侧,31.262059000000004,117.282758,餐饮服务;中餐厅;中餐厅,B0FFH7XCQF
449,凯胜,安徽省,合肥市,庐江县,安徽庐江凯胜新能源科技有限公司,庐江县经济开发区城西新区新桥路69号,31.236385,117.234454,公司企业;公司企业;公司企业,B0FFHRX7N2
450,凯胜,山西省,忻州市,原平市,凯胜汽贸,原平市大运路152处加油站南20米,38.73438,112.687348,汽车销售;东风特约销售;东风销售,B0FFHGLNJO
451,凯胜,山西省,忻州市,原平市,凯胜汽贸,原平市大运路152处加油站南20米,38.73438,112.687348,汽车销售;东风特约销售;东风销售,B0FFHGLNJO
452,凯胜,山东省,烟台市,莱州市,凯胜摩托车电动车维修,莱州市文泉西街1819,37.169548,119.935278,生活服务;维修站点;维修站点,B021705357
453,凯胜,山东省,烟台市,牟平区,烟台市凯胜起重设备吊装有限公司,牟平区207省道,37.349182,121.536555,公司企业;公司;公司,B0FFI1FADH
454,凯胜,福建省,南平市,建瓯市,苍南县凯胜纸业有限公司,建瓯市莲花路13号附近,27.030471000000002,118.3112,公司企业;公司;公司,B0FFHEBR2U
455,凯胜,福建省,南平市,建瓯市,苍南县凯胜纸业有限公司,建瓯市莲花路13号附近,27.030471000000002,118.3112,公司企业;公司;公司,B0FFHEBR2U
456,凯胜,四川省,广元市,利州区,凯胜通讯(北京路),利州区北京路273号凯盛大厦,32.426392,105.831318,购物服务;家电电子卖场;手机销售,B0FFFN5AU6
457,凯胜,四川省,广元市,利州区,蜂巢网咖(凯胜店),利州区南河小商品市场凯盛大厦三楼,32.425318,105.829102,体育休闲服务;娱乐场所;网吧,B0FFGZSV7H
458,凯胜,河南省,许昌市,魏都区,浩宇·凯胜牛仔专卖,魏都区解放路188号附近,34.028467,113.81412900000001,购物服务;服装鞋帽皮具店;服装鞋帽皮具店,B0FFFZDHRG
459,凯胜,河南省,许昌市,长葛市,长葛市凯胜沃机械厂,长葛市老城镇耿庄村,34.240159999999996,113.8236,公司企业;公司企业;公司企业,B0FFGP160T
460,凯胜,陕西省,汉中市,汉台区,凯胜汽车用品,汉台区天汉大道北段附近,33.092174,107.01755,汽车服务;汽车服务相关;汽车服务相关,B0FFIR2ZGL
461,凯胜,陕西省,汉中市,汉台区,凯胜汽车用品,汉台区天汉大道北段附近,33.092174,107.01755,汽车服务;汽车服务相关;汽车服务相关,B0FFIR2ZGL
462,凯胜,辽宁省,抚顺市,清原满族自治县,凯胜信息咨询,清原满族自治县兴隆路18-2号附近,42.096140999999996,124.918617,生活服务;信息咨询中心;信息咨询中心,B0FFG7XKVE
463,凯胜,辽宁省,抚顺市,清原满族自治县,凯胜信息咨询,清原满族自治县兴隆路18-2号附近,42.096140999999996,124.918617,生活服务;信息咨询中心;信息咨询中心,B0FFG7XKVE
464,凯胜,浙江省,台州市,路桥区,凯胜移门,路桥区桐屿街道屿城路242号,28.590478000000004,121.334861,购物服务;家居建材市场;建材五金市场,B0FFGWMNQ9
465,凯胜,浙江省,台州市,黄岩区,凯胜酒店,黄岩区西沅路32号,28.625358000000002,121.146279,住宿服务;宾馆酒店;宾馆酒店,B0FFHWLJ1E
466,凯胜,浙江省,台州市,椒江区,台州凯胜健身器材有限公司,椒江区章安街道杨司公路888号,28.730763,121.44623999999999,公司企业;公司;公司,B0FFFAIM9O
467,凯胜,黑龙江省,大庆市,萨尔图区,凯胜羽毛球专卖(新亮点体育店),萨尔图区经六街110号,46.59652,125.11719,购物服务;购物相关场所;购物相关场所,B0FFGPE5CG
468,凯胜,黑龙江省,大庆市,萨尔图区,凯胜羽毛球专卖(新亮点体育店),萨尔图区经六街110号,46.59652,125.11719,购物服务;购物相关场所;购物相关场所,B0FFGPE5CG
469,凯胜,安徽省,六安市,叶集区,凯胜养护,叶集区叶集区汪俊饲料超市东60米(南海路北),31.849952000000002,115.916423,汽车服务;汽车养护/装饰;汽车养护,B0FFIZ4NP6
470,凯胜,安徽省,六安市,叶集区,凯胜养护,叶集区叶集区汪俊饲料超市东60米(南海路北),31.849952000000002,115.916423,汽车服务;汽车养护/装饰;汽车养护,B0FFIZ4NP6
471,凯胜,[],[],[],凱勝電器商行,[]南京東路五段251巷,25.052726999999997,121.56516200000002,购物服务;便民商店/便利店;便民商店/便利店,B0FFFUXVGR
472,凯胜,[],[],[],凱勝商行 ( 太平區 ),[]光明路,24.109405,120.732452,购物服务;便民商店/便利店;便民商店/便利店,B0FFFUX6RU
473,凯胜,[],[],[],凱勝水電行,[]北投區明德路333巷37號,25.116495,121.51824099999999,购物服务;超级市场;超市,B0FFFUQP90
474,凯胜,[],[],[],凱勝汽車材料行,[][],25.174288,121.44145,购物服务;便民商店/便利店;便民商店/便利店,B0FFFUXVGU
475,凯胜,[],[],[],凱勝五金行,[]平東路239巷121弄,24.912832,121.248939,购物服务;便民商店/便利店;便民商店/便利店,B0FFFUXVGS
476,凯胜,[],[],[],凱勝機車行,[]南榮路,25.120670999999998,121.743376,汽车维修;汽车维修;汽车维修,B0FFFUZPOH
477,凯胜,[],[],[],凱勝中藥房,[]南榮路,23.963282,120.965015,医疗保健服务;医药保健销售店;药房,B0FFFUUM26
478,凯胜,[],[],[],凱勝報關行,[]孝三路,25.130018,121.739139,公司企业;公司企业;公司企业,B0FFFUL83A
479,凯胜,[],[],[],凱勝鋁業股份有限公司,[]新樂路41號,22.971270999999998,120.177066,公司企业;公司企业;公司企业,B0FFFUVILR
480,凯胜,[],[],[],凱勝汽車修配廠,[]南投縣埔里鎮信義路85號,23.973699,120.977271,汽车维修;汽车综合维修;汽车综合维修,B0FFFUZON3
481,凯胜,[],[],[],凱勝厨房瓦斯器具股份有限公司,[]自强街45巷42號,24.154420000000002,120.69621200000002,公司企业;公司企业;公司企业,B0FFFUVBBF
482,凯胜,[],[],[],臺灣彩券(凱勝彩券行),[]臺北市信義區吴興街93號,25.030537,121.560854,购物服务;购物相关场所;购物相关场所,B0FFFUYGSR
483,凯胜,[],[],[],臺鈴機車Suzuki(凱勝車業有限公司),[]基隆市中山區西定路143號,25.134626,121.734187,摩托车服务;摩托车服务相关;摩托车服务相关,B0FFFUZM2G
484,凯胜,浙江省,舟山市,岱山县,岱山县凯胜体育用品店,岱山县沿港中路34号附近,30.237391,122.20458500000001,购物服务;体育用品店;体育用品店,B0FFH9VP6Q
485,凯胜,浙江省,舟山市,岱山县,岱山县凯胜体育用品店,岱山县沿港中路34号附近,30.237391,122.20458500000001,购物服务;体育用品店;体育用品店,B0FFH9VP6Q
486,凯胜,广东省,东莞市,东莞市,凯胜,东莞市桥头镇桥头镇郎厦工业区东深路230,23.037489,114.08491200000002,购物服务;购物相关场所;购物相关场所,B0FFGOALP1
487,凯胜,广东省,东莞市,东莞市,凯胜木业,东莞市东业路与恒通路交叉口西北100米,22.9185,113.690603,购物服务;家居建材市场;家居建材市场,B0FFH6TMO7
488,凯胜,广东省,东莞市,东莞市,凯胜通讯,东莞市石碣镇银河北路11号,23.104372,113.82634499999999,购物服务;购物相关场所;购物相关场所,B0FFGIZ2AC
489,凯胜,广东省,东莞市,东莞市,凯顺五金家电制冷配件批发,东莞市长安镇厦岗村开源路6号,22.798327,113.74138,购物服务;专卖店;专营店,B03017W2N1
490,凯胜,广东省,东莞市,东莞市,东莞市凯胜印刷有限公司,东莞市裕丰社区赤山一巷与赤山路交叉口南50米,22.944193,114.12090900000001,公司企业;公司;公司,B03018MW6K
491,凯胜,广东省,东莞市,东莞市,凯胜装饰,东莞市增卢路与沿溪路交叉口西南150米,23.054362,113.86486799999999,生活服务;生活服务场所;生活服务场所,B0FFGA73SR
492,凯胜,广东省,东莞市,东莞市,凯胜宝鞋厂,东莞市石碣镇单屋单祠路6号2楼,23.11991,113.81118300000001,公司企业;公司企业;公司企业,B0FFGOE4ZN
493,凯胜,广东省,东莞市,东莞市,凯胜风机,东莞市桥头镇银河工业区银河3路7号,22.990989000000003,114.08133400000001,公司企业;公司;公司,B03017U251
494,凯胜,广东省,东莞市,东莞市,东莞凯胜线业,东莞市石排镇沙迳工业区文前路七号二楼,23.073883,113.951282,公司企业;公司;公司,B0FFHS5M9V
495,凯胜,广东省,东莞市,东莞市,凯胜精工科技,东莞市大朗镇佛子凹村佛富路85号C3栋,22.936676000000002,113.895322,公司企业;公司;公司,B0FFHGNQSA
496,凯胜,广东省,东莞市,东莞市,凯胜美发养生(东城总店),东莞市大园路与文华路交叉口东50米,23.060954000000002,113.76997,生活服务;生活服务场所;生活服务场所,B03018SHJP
497,凯胜,广东省,东莞市,东莞市,凯胜精密模具加工厂,东莞市塘厦镇石潭布金园街9号,22.806926999999998,114.112678,公司企业;工厂;工厂,B0FFGJ1L1C
498,凯胜,广东省,东莞市,东莞市,凯胜模具钢材有限公司,东莞市百家路23号,22.847105,114.138811,公司企业;公司;公司,B0FFFPWOP2
499,凯胜,广东省,东莞市,东莞市,东莞市凯胜安防工程有限公司,东莞市东深渠路与元岭一街交叉口东50米,22.807614,114.11156299999999,公司企业;公司;公司,B0FFHHDU8T
500,凯胜,广东省,东莞市,东莞市,凯盛毛衫,东莞市大朗镇富康北一巷8号,22.952741,113.92589699999999,购物服务;专卖店;专营店,B0FFI20C3K
501,凯胜,广东省,潮州市,潮安区,凯胜通讯,潮安区华园大道北路27号,23.905412,116.704624,购物服务;家电电子卖场;数码电子,B0FFG4OMDQ
502,凯胜,广东省,潮州市,潮安区,凯胜通讯,潮安区华园大道北路27号,23.905412,116.704624,购物服务;家电电子卖场;数码电子,B0FFG4OMDQ
503,凯胜,辽宁省,大连市,甘井子区,凯胜羽毛球馆(东纬路),甘井子区东纬路47号,38.957419,121.583224,体育休闲服务;运动场馆;羽毛球场,B0FFF3YMUX
504,凯胜,辽宁省,大连市,西岗区,大连凯胜贸易有限公司,西岗区东北路1号1楼1层,38.925836,121.60061599999999,公司企业;公司;公司,B0FFGXW2TU
505,凯胜,辽宁省,大连市,甘井子区,特来电汽车充电站(大连凯胜羽毛球馆),甘井子区东纬路47号,38.958304999999996,121.583471,汽车服务;充电站;充电站,B0FFHJJ5CJ
506,凯胜,四川省,眉山市,东坡区,凯胜新材料眉山有限公司,东坡区昱辉路附近,30.002302,103.76111,公司企业;公司企业;公司企业,B0FFIRXN5B
507,凯胜,四川省,眉山市,东坡区,凯胜新材料眉山有限公司,东坡区昱辉路附近,30.002302,103.76111,公司企业;公司企业;公司企业,B0FFIRXN5B
508,凯胜,新疆维吾尔自治区,巴音郭楞蒙古自治州,和静县,凯胜轴承五金销售中心,和静县天鹅湖路2221-6,42.327678999999996,86.383099,购物服务;家居建材市场;建材五金市场,B0FFG7IKNU
509,凯胜,新疆维吾尔自治区,巴音郭楞蒙古自治州,库尔勒市,凯胜汽配,库尔勒市323省道东100米,41.794956,86.12305500000001,汽车服务;汽车配件销售;汽车配件销售,B0FFG3C5H0
510,凯胜,吉林省,通化市,柳河县,凯胜日杂建材商店,柳河县008乡道东50米,42.065655,125.75596000000002,购物服务;家居建材市场;建材五金市场,B0FFG3FX6F
511,凯胜,吉林省,通化市,柳河县,凯胜日杂建材商店,柳河县008乡道东50米,42.065655,125.75596000000002,购物服务;家居建材市场;建材五金市场,B0FFG3FX6F
512,凯胜,辽宁省,丹东市,元宝区,凯胜食品超市,元宝区兴东街道公安街美伦小区2号楼,40.144678000000006,124.40491999999999,购物服务;超级市场;超市,B0FFG8LHLE
513,凯胜,辽宁省,丹东市,东港市,凯胜饭店,东港市201国道北50米,39.867740999999995,124.041227,餐饮服务;中餐厅;中餐厅,B0FFF3PR6Q
514,凯胜,广西壮族自治区,河池市,宜州区,凯胜五金,宜州区政和街与红兰街交叉口东北,24.697019,108.33908600000001,购物服务;家居建材市场;建材五金市场,B0FFHUI70D
515,凯胜,广西壮族自治区,河池市,宜州区,凯胜五金,宜州区政和街与红兰街交叉口东北,24.697019,108.33908600000001,购物服务;家居建材市场;建材五金市场,B0FFHUI70D
516,凯胜,山西省,大同市,城区,凯胜烟酒,城区向阳里36号楼,40.067122999999995,113.29746999999999,购物服务;专卖店;烟酒专卖店,B0FFIWQI26
517,凯胜,山西省,大同市,城区,凯胜烟酒,城区向阳里36号楼,40.067122999999995,113.29746999999999,购物服务;专卖店;烟酒专卖店,B0FFIWQI26
518,凯胜,陕西省,安康市,紫阳县,凯胜摩托维修服务中心,紫阳县仁和嘴新桥头,32.520844,108.52296799999999,摩托车服务;摩托车服务相关;摩托车服务相关,B0FFHCNLKL
519,凯胜,陕西省,安康市,紫阳县,凯胜摩托维修服务中心,紫阳县仁和嘴新桥头,32.520844,108.52296799999999,摩托车服务;摩托车服务相关;摩托车服务相关,B0FFHCNLKL
520,凯胜,广东省,广州市,海珠区,广州凯胜商行,海珠区素社街道前进路127号,23.100407999999998,113.27998799999999,购物服务;专卖店;烟酒专卖店,B0FFHFXNQB
521,凯胜,广东省,广州市,海珠区,凯胜五金饰品,海珠区瑞康路97号瑞康花边世界1层60-2档,23.08727,113.296793,购物服务;家居建材市场;建材五金市场,B0FFG83NA7
522,凯胜,广东省,广州市,天河区,东圃凯胜商业广场,天河区中山大道中292号附近,23.120098000000002,113.405449,购物服务;购物相关场所;购物相关场所,B0FFIBTIK4
523,凯胜,广东省,广州市,海珠区,凯胜纺织,海珠区五凤村瑞康路6号广东省广州市中大长江国际纺织城C003档,23.088562,113.29446999999999,公司企业;公司企业;公司企业,B0FFI9AXG4
524,凯胜,广东省,广州市,天河区,广州市凯胜餐饮管理有限公司,天河区园区c栋高普路1029号1楼,23.172142,113.411777,公司企业;公司;公司,B0FFFX016K
525,凯胜,广东省,广州市,天河区,广州凯胜建筑材料有限公司,天河区体育东路33号天盛大厦701房01,23.130297,113.32780100000001,公司企业;公司;公司,B00140C47H
526,凯胜,广东省,广州市,番禺区,凯盛酒店(新六亩路),番禺区钟村镇钟屏岔道16号,22.968742000000002,113.31622800000001,住宿服务;宾馆酒店;宾馆酒店,B00140WA4C
527,凯胜,广东省,广州市,黄埔区,广州凯盛电子科技有限公司,黄埔区联达路5号,23.131032,113.54108500000001,公司企业;公司;机械电子,B00141I5AD
528,凯胜,广东省,广州市,天河区,Kason羽毛球(天河汇商业广场),天河区天河直街160号天河汇商业广场F1层,23.139378,113.31719299999999,购物服务;体育用品店;体育用品店,B0FFI6DD3C
529,凯胜,广东省,广州市,海珠区,凯盛,海珠区五凤街东场二街9号,23.084536,113.29589299999999,购物服务;家居建材市场;布艺市场,B0FFFYLY7L
530,凯胜,广东省,广州市,海珠区,广州市凯盛南洲汽车维修服务有限公司,海珠区南洲路48号首层,23.063591,113.304079,汽车销售;长安汽车销售;长安汽车销售|汽车维修;长安汽车维修;长安汽车维修,B00141JK60
531,凯胜,江西省,宜春市,靖安县,凯胜手机店,靖安县双溪镇中大街36号时代广场苹果超市一楼,28.85947,115.36118300000001,购物服务;购物相关场所;购物相关场所,B0FFIWTZRW
532,凯胜,江西省,宜春市,宜丰县,凯胜汽车美容养护中心(东门路店),宜丰县东门路与城东南路交叉口东南50米,28.382986,114.798602,汽车服务;汽车养护/装饰;汽车养护,B0FFGB1TTH
533,凯胜,辽宁省,营口市,西市区,凯胜羽毛球馆,西市区金牛山大街西102号,40.658432,122.188574,体育休闲服务;运动场馆;羽毛球场,B01A114BSU
534,凯胜,辽宁省,营口市,站前区,凯胜汽车装饰中心,站前区光华路桂丰园小区东门南100米路西,40.663514,122.25693999999999,汽车服务;汽车养护/装饰;汽车养护,B0FFF31XH2
535,凯胜,辽宁省,营口市,站前区,营口市站前区凯胜法律咨询服务所,站前区东市北街1-甲12号,40.678985,122.253469,生活服务;生活服务场所;生活服务场所,B0FFIWK021
536,凯胜,辽宁省,营口市,站前区,营口市站前区凯胜法律咨询服务所,站前区东市北街1-甲4号,40.678934999999996,122.25331399999999,生活服务;事务所;律师事务所,B0FFG48LA1
537,凯胜,福建省,宁德市,寿宁县,雷朋汽车隔热膜(凯胜特约专营店),寿宁县胜利街与茗溪路交叉口西100米,27.465308,119.498594,汽车服务;汽车养护/装饰;汽车养护,B025101OMO
538,凯胜,福建省,宁德市,寿宁县,雷朋汽车隔热膜(凯胜特约专营店),寿宁县胜利街与茗溪路交叉口西100米,27.465308,119.498594,汽车服务;汽车养护/装饰;汽车养护,B025101OMO
539,凯胜,山东省,潍坊市,青州市,凯胜盐业,青州市青州南路东一街1188号,36.6944,118.509674,购物服务;专卖店;专营店,B0FFFZO2JC
540,凯胜,山东省,潍坊市,寿光市,凯胜五金电器土产建筑机械,寿光市东风大街与060县道交叉口东100米,36.962615,118.87470400000001,购物服务;购物相关场所;购物相关场所,B0FFFSWGCM
541,凯胜,山东省,潍坊市,寒亭区,凯胜汽修厂,寒亭区白云路与通亭街交叉口东50米,36.756831,119.18001799999999,汽车维修;汽车综合维修;汽车综合维修,B0FFI325YR
542,凯胜,山东省,潍坊市,青州市,凯胜齿轮厂,青州市弥河镇工程机械园,36.607872,118.537888,公司企业;公司企业;公司企业,B0FFIVL877
543,凯胜,山东省,潍坊市,诸城市,凯盛物流,诸城市206国道南50米,35.974603,119.37098200000001,生活服务;物流速递;物流速递,B0FFG253N1
544,凯胜,河南省,安阳市,北关区,凯胜商贸,北关区机场南路与民航路交叉口北100米,36.122794,114.347728,购物服务;便民商店/便利店;便民商店/便利店,B0FFGDHMUF
545,凯胜,河南省,安阳市,安阳县,安阳县凯胜服饰工作室,安阳县前街村,36.207569,114.06348100000001,公司企业;工厂;工厂,B0FFGQV4AU
546,凯胜,河南省,安阳市,文峰区,凯胜汽车养护中心,文峰区光辉路与灯塔路交叉口西50米,36.106147,114.374045,汽车服务;汽车养护/装饰;汽车养护,B0FFI5VC6N
547,凯胜,河南省,安阳市,文峰区,凯盛汽车美容装饰中心,文峰区中华路街道弦歌大道安彩嘉园向东50米,36.055054999999996,114.387638,汽车服务;汽车养护/装饰;汽车养护,B0FFFVF6JK
548,凯胜,河北省,沧州市,海兴县,凯胜通讯(滨海怡城东南),海兴县华府嘉苑附近,38.143165,117.48504199999999,购物服务;家电电子卖场;手机销售,B013D00WU3
549,凯胜,河北省,沧州市,新华区,凯胜授权店,新华区建设北大道与维明路交叉口西北50米,38.313539,116.86945700000001,购物服务;购物相关场所;购物相关场所,B0FFJ0GLOK
550,凯胜,河北省,沧州市,吴桥县,吴桥县凯胜减速机厂厂家销售处,吴桥县华山道38号附近,37.627439,116.38417,购物服务;专卖店;专营店,B0FFIN9T5C
551,凯胜,安徽省,马鞍山市,博望区,凯胜有限公司,博望区工业新城3栋(崂山西路),31.568169,118.857399,公司企业;公司;公司,B0FFIRBQFW
552,凯胜,安徽省,马鞍山市,博望区,凯胜有限公司,博望区工业新城3栋(崂山西路),31.568169,118.857399,公司企业;公司;公司,B0FFIRBQFW
553,凯胜,吉林省,吉林市,丰满区,李宁凯胜羽毛球专卖店,丰满区吉林大街45-2号,43.815535,126.56264099999999,购物服务;专卖店;专营店,B0FFGR80AF
554,凯胜,吉林省,吉林市,昌邑区,凯盛玻璃,昌邑区十一中加油站对面,43.875091999999995,126.566503,公司企业;工厂;工厂,B0FFFYRKYY
555,凯胜,辽宁省,沈阳市,铁西区,凯胜,铁西区南九中路51号附近,41.793594,123.346378,购物服务;体育用品店;体育用品店,B00181BGSQ
556,凯胜,辽宁省,沈阳市,皇姑区,凯胜物资经销处,皇姑区永安街,41.865778999999996,123.46863799999998,购物服务;家居建材市场;家居建材市场,B0FFHHITNB
557,凯胜,辽宁省,沈阳市,辽中区,凯胜日用品商店,辽中区北二路与商业街交叉口东北50米,41.51583,122.73561200000002,购物服务;购物相关场所;购物相关场所,B001816NB8
558,凯胜,辽宁省,沈阳市,铁西区,凯胜羽毛球馆停车场,铁西区北四东路65号附近,41.795877000000004,123.379153,交通设施服务;停车场;公共停车场,B0FFG8B4BQ
559,凯胜,辽宁省,沈阳市,铁西区,凯胜羽毛球馆(东北门),铁西区云峰街北四路交汇口西行50米处,41.795882,123.37869199999999,通行设施;临街院门;临街院门,B0FFH6SREC
560,凯胜,辽宁省,沈阳市,铁西区,停车场(春城小院东),铁西区北四东路与爱工北街交叉口东北100米,41.794990999999996,123.382434,交通设施服务;停车场;公共停车场,B0FFGAQPD6
561,凯胜,河南省,驻马店市,泌阳县,凯胜种子农药化肥,泌阳县行政支路与004乡道交叉口东北50米,32.867259999999995,113.21978700000001,购物服务;专卖店;专营店,B0FFG7DCKT
562,凯胜,河南省,驻马店市,遂平县,凯盛手机城,遂平县建设路122号附近,33.145340000000004,114.00553899999998,购物服务;家电电子卖场;手机销售,B018C0O8AX
563,凯胜,湖南省,湘潭市,湘潭县,凯胜玻璃厂,湘潭县[],27.853952000000003,112.679842,公司企业;工厂;工厂,B0FFGPG0SR
564,凯胜,湖南省,湘潭市,雨湖区,湖南凯胜厨具节能设备有限公司,雨湖区中山路与兴仁巷交叉口西50米,27.851670000000002,112.904606,公司企业;公司;公司,B0FFIY77KP
565,凯胜,湖南省,湘潭市,湘潭县,东方凯胜音乐会所,湘潭县易俗河镇雪松中路,27.781526,112.959676,体育休闲服务;体育休闲服务场所;体育休闲服务场所,B0FFHN4QF4
566,凯胜,山东省,滨州市,滨城区,滨州凯胜设备有限公司,滨城区渤海十五路811号附近,37.413734999999996,117.97536799999999,公司企业;公司企业;公司企业,B0FFJ4TAKY
567,凯胜,山东省,滨州市,滨城区,滨州凯胜设备有限公司,滨城区渤海十五路811号附近,37.413734999999996,117.97536799999999,公司企业;公司企业;公司企业,B0FFJ4TAKY
568,凯胜,云南省,昭通市,盐津县,凯胜二店,盐津县盐井镇新区时代广场,28.108103000000003,104.236319,购物服务;购物相关场所;购物相关场所,B0FFI894NU
569,凯胜,云南省,昭通市,昭阳区,凯胜火锅店,昭阳区发达广场5-1-3,27.350752000000004,103.743767,餐饮服务;中餐厅;火锅店,B0FFIQTN7C
570,凯胜,山西省,临汾市,尧都区,凯胜矿山维修部,尧都区环城南路北50米,36.05625,111.53584,生活服务;维修站点;维修站点,B0FFFRHKZ8
571,凯胜,山西省,临汾市,尧都区,凯胜矿山维修部,尧都区环城南路北50米,36.05625,111.53584,生活服务;维修站点;维修站点,B0FFFRHKZ8
572,凯胜,重庆市,重庆市,渝北区,凯胜家纺,渝北区回兴国际家纺城,29.666318,106.61398700000001,购物服务;购物相关场所;购物相关场所,B0FFHIUQIW
573,凯胜,重庆市,重庆市,南岸区,凯胜羽毛球专卖(南岸区阿傻体育凯胜店),南岸区亚太路与江南大道交叉口东南100米,29.535246,106.564613,购物服务;专卖店;专营店,B0FFHMPFF7
574,凯胜,重庆市,重庆市,渝北区,凯胜建材经营部,渝北区渝澳大道与锦龙支路交叉口东100米,29.586382,106.52174699999999,购物服务;家居建材市场;建材五金市场,B0FFHYFSX0
575,凯胜,重庆市,重庆市,合川区,重庆凯胜老火锅,合川区107乡道与361县道交叉口西南200米,30.213996,106.45965,餐饮服务;中餐厅;火锅店,B0FFFJXK56
576,凯胜,重庆市,重庆市,渝北区,重庆凯胜汽车租赁有限公司,渝北区紫薇支路与龙飞路交叉口东北50米,29.597296999999998,106.53968799999998,汽车服务;汽车租赁;汽车租赁,B0FFGW7STK
577,凯胜,重庆市,重庆市,合川区,龙城花园,合川区龙腾大道,30.214066,106.460274,商务住宅;住宅区;住宅小区,B0FFGI0XML
578,凯胜,重庆市,重庆市,江津区,福城凯盛灯饰,江津区双庆路1号附1号,29.416320000000002,106.27569299999999,购物服务;家居建材市场;灯具瓷器市场,B0FFG0XEQE
579,凯胜,江西省,九江市,濂溪区,凯胜广告,濂溪区十里街道德化路陶洼小区A21栋4号门面,29.686293,116.00936200000001,公司企业;公司;公司,B0FFGPKX4I
580,凯胜,江西省,九江市,濂溪区,凯胜广告,濂溪区十里街道德化路陶洼小区A21栋4号门面,29.686293,116.00936200000001,公司企业;公司;公司,B0FFGPKX4I
581,凯胜,广东省,茂名市,茂南区,凯胜羽毛球专卖,茂南区人民南路2号之八明湖商场李宁专卖店,21.663202,110.917351,购物服务;购物相关场所;购物相关场所,B0FFIFQMOF
582,凯胜,广东省,茂名市,茂南区,凯胜羽毛球专卖,茂南区光华南路聚佳广场一楼,21.654369,110.924706,购物服务;购物相关场所;购物相关场所,B0FFF54TVF
583,凯胜,福建省,三明市,永安市,凯胜羽毛球专卖(三明永安新奥维店),永安市水坝路与燕江中路交叉口北50米,25.968422,117.362701,购物服务;购物相关场所;购物相关场所,B0FFGKSZ9Y
584,凯胜,福建省,三明市,永安市,凯胜羽毛球专卖(三明永安新奥维店),永安市水坝路与燕江中路交叉口北50米,25.968422,117.362701,购物服务;购物相关场所;购物相关场所,B0FFGKSZ9Y
585,凯胜,浙江省,嘉兴市,平湖市,凯胜电热,平湖市松枫港路708号,30.706978999999997,121.012222,购物服务;家居建材市场;建材五金市场,B0FFGY5W6M
586,凯胜,浙江省,嘉兴市,嘉善县,嘉善凯胜服装辅料厂,嘉善县大舜钮扣南路8号,30.972451,120.892541,公司企业;公司企业;公司企业,B0FFG9DUR5
587,凯胜,浙江省,嘉兴市,秀洲区,嘉兴市凯胜箱包有限公司,秀洲区东升西路与秀庄路交叉口西100米,30.77856,120.70090900000001,公司企业;公司;公司,B0FFHMSL2B
588,凯胜,浙江省,嘉兴市,桐乡市,桐乡市凯胜贸易有限公司,桐乡市大麻镇黎明工业园附近,30.528655999999998,120.347471,公司企业;公司;公司,B0FFHF11RD
589,凯胜,浙江省,嘉兴市,海宁市,凯盛家纺,海宁市市场路家纺城3F-D092-093-097号,30.457313,120.35862,购物服务;家居建材市场;家居建材市场,B0FFGD3LCE
590,凯胜,浙江省,嘉兴市,桐乡市,桐乡市凯盛精密机械有限公司,桐乡市德胜路88号,30.632178999999997,120.381473,公司企业;公司;机械电子,B0FFGYAMTJ
591,凯胜,辽宁省,葫芦岛市,兴城市,凯胜宾馆,兴城市临河大街40-19号楼(香林水岸),40.602377000000004,120.766397,住宿服务;宾馆酒店;宾馆酒店,B0FFI0BRMC
592,凯胜,辽宁省,葫芦岛市,兴城市,凯胜宾馆,兴城市临河大街40-19号楼(香林水岸),40.602377000000004,120.766397,住宿服务;宾馆酒店;宾馆酒店,B0FFI0BRMC
593,凯胜,广东省,韶关市,武江区,凯胜羽毛球馆,武江区芙蓉东路36号,24.785610000000002,113.582999,体育休闲服务;运动场馆;羽毛球场,B02EF15XMJ
594,凯胜,广东省,韶关市,武江区,凯胜羽毛球馆,武江区芙蓉东路36号,24.785610000000002,113.582999,体育休闲服务;运动场馆;羽毛球场,B02EF15XMJ
595,凯胜,宁夏回族自治区,吴忠市,利通区,凯胜鲜果蔬菜超市,利通区文卫北街648号,37.999503999999995,106.21025800000001,购物服务;便民商店/便利店;便民商店/便利店,B0FFFDZKMD
596,凯胜,宁夏回族自治区,吴忠市,利通区,凯胜鲜果蔬菜超市,利通区文卫北街648号,37.999503999999995,106.21025800000001,购物服务;便民商店/便利店;便民商店/便利店,B0FFFDZKMD
597,凯胜,河南省,南阳市,邓州市,凯胜通讯,邓州市王智手机专卖店(湍西南路),32.630283,112.172699,购物服务;家电电子卖场;家电电子卖场,B0FFJ2UMF8
598,凯胜,河南省,南阳市,唐河县,凯胜川菜馆,唐河县东郊油田基地石柱山路物资供应处门口北边,32.672768,112.87026399999999,餐饮服务;餐饮相关场所;餐饮相关,B0FFITQTF4
599,凯胜,河南省,南阳市,卧龙区,南阳凯胜园艺有限公司,卧龙区[],33.058219,112.57521899999999,公司企业;公司企业;公司企业,B0FFJ0S33K
600,凯胜,河南省,南阳市,内乡县,凯盛名车汇,内乡县湍东镇和源酒店南50米,33.061873999999996,111.856122,汽车销售;汽车销售;汽车销售,B0FFH0ZOO3
601,凯胜,湖南省,株洲市,天元区,凯胜篮球俱乐部,天元区金德工业园5号仓库7单元,27.836706,113.108451,体育休闲服务;运动场馆;篮球场馆,B0FFHFZ473
602,凯胜,湖南省,株洲市,天元区,湖南凯胜厨具节能设备有限公司,天元区黄山路627号附近,27.811655,113.11953799999999,公司企业;公司;公司,B0FFHVSUXD
603,凯胜,浙江省,杭州市,江干区,凯胜(杭州高凌东站中心凯胜店),江干区艮山西路汽车东站小商品市场4层,30.275232,120.20341200000001,购物服务;体育用品店;体育用品店,B0FFF5JZSA
604,凯胜,浙江省,杭州市,萧山区,凯胜鞋业,萧山区水田畈路119号,30.127921999999998,120.17012199999999,购物服务;服装鞋帽皮具店;服装鞋帽皮具店,B023B195LU
605,凯胜,浙江省,杭州市,萧山区,凯胜鞋业(临浦店),萧山区临浦镇戴家桥临江路38到39号,30.039015000000003,120.25065,购物服务;服装鞋帽皮具店;服装鞋帽皮具店,B023B19800
606,凯胜,浙江省,杭州市,萧山区,凯胜鞋业(马鞍店),萧山区马鞍镇车站北路67号,30.146569,120.5923,购物服务;服装鞋帽皮具店;服装鞋帽皮具店,B023B198RO
607,凯胜,浙江省,杭州市,萧山区,杭州凯胜酒店,萧山区滨康路55号,30.181778,120.22913500000001,住宿服务;宾馆酒店;宾馆酒店,B0FFI0BUQQ
608,凯胜,浙江省,杭州市,桐庐县,浙江凯胜,桐庐县洋州经济开发区东兴路369号,29.80225,119.72075500000001,公司企业;公司;公司,B023B0BP5K
609,凯胜,浙江省,杭州市,富阳区,凯胜宾馆,富阳区环金线与9号路交叉口南50米,29.919567999999998,119.90128999999999,住宿服务;宾馆酒店;宾馆酒店,B0FFFYUCKG
610,凯胜,浙江省,杭州市,桐庐县,浙江凯胜(公交站),桐庐县桐庐19路,29.802,119.720726,交通设施服务;公交车站;公交车站相关,BV10613041
611,凯胜,浙江省,杭州市,江干区,凯胜印业(景华苑西),江干区新塘路189-1号,30.272143,120.20718500000001,生活服务;生活服务场所;生活服务场所,B023B072E4
612,凯胜,浙江省,杭州市,富阳区,富阳凯胜厨房设备公司,富阳区工业功能区三号路6号,30.087769,120.05724199999999,公司企业;公司;公司,B023B18IHW
613,凯胜,浙江省,杭州市,上城区,杭州凯胜化工有限公司,上城区庆春路137华都大厦7层709,30.257639,120.174198,公司企业;公司;冶金化工,B023B03ZUW
614,凯胜,云南省,临沧市,耿马傣族佤族自治县,凯胜寄售行,耿马傣族佤族自治县青年路32附05号附近,23.529067,99.399114,购物服务;特殊买卖场所;特殊买卖场所,B0FFFZUN28
615,凯胜,云南省,临沧市,耿马傣族佤族自治县,凯胜寄售行,耿马傣族佤族自治县青年路32附05号附近,23.529067,99.399114,购物服务;特殊买卖场所;特殊买卖场所,B0FFFZUN28
616,凯胜,新疆维吾尔自治区,昌吉回族自治州,奇台县,奇台县凯胜科技服务部,奇台县奇台镇东门车站后门斜对面,44.018899,89.59383199999999,公司企业;公司;公司,B0FFHTXJNH
617,凯胜,新疆维吾尔自治区,昌吉回族自治州,奇台县,奇台县凯胜科技服务部,奇台县奇台镇东门车站后门斜对面,44.018899,89.59383199999999,公司企业;公司;公司,B0FFHTXJNH
618,凯胜,广东省,汕尾市,陆丰市,凯胜专营店,陆丰市碣石镇大水沟20号之3,22.806820000000002,115.825258,购物服务;购物相关场所;购物相关场所,B0FFHJ4VI1
619,凯胜,广东省,汕尾市,陆丰市,凯胜专营店,陆丰市碣石镇大水沟20号之3,22.806820000000002,115.825258,购物服务;购物相关场所;购物相关场所,B0FFHJ4VI1
620,凯胜,四川省,内江市,市中区,凯胜大药房,市中区内史路与铁门南路交叉口西150米,29.639588,104.998355,医疗保健服务;医药保健销售店;药房,B0FFG6BCBS
621,凯胜,四川省,内江市,市中区,凯胜大药房,市中区内史路与铁门南路交叉口西150米,29.639588,104.998355,医疗保健服务;医药保健销售店;药房,B0FFG6BCBS
622,凯胜,贵州省,黔东南苗族侗族自治州,凯里市,凯胜劳保用品,凯里市营盘东路州石油公司,26.585781,107.983635,购物服务;专卖店;专营店,B0FFG9BXL0
623,凯胜,贵州省,黔东南苗族侗族自治州,凯里市,凯胜名烟名酒,凯里市宁波东路腾龙水会附近,26.573956,107.982644,购物服务;专卖店;烟酒专卖店,B03570089W
624,凯胜,云南省,玉溪市,华宁县,凯胜建材装饰,华宁县园山路与河滨路交叉口东北150米,24.191175,102.941771,购物服务;家居建材市场;家居建材市场,B0FFIZAOWY
625,凯胜,云南省,玉溪市,华宁县,凯胜建材装饰,华宁县园山路与河滨路交叉口东北150米,24.191175,102.941771,购物服务;家居建材市场;家居建材市场,B0FFIZAOWY
626,凯胜,四川省,资阳市,雁江区,凯盛汽车生活馆,雁江区仁德东路与新城路交叉口东南150米,30.123084999999996,104.633507,汽车服务;汽车配件销售;汽车配件销售,B0FFF0245G
627,凯胜,四川省,资阳市,雁江区,凯盛汽车生活馆,雁江区仁德东路与新城路交叉口东南150米,30.123084999999996,104.633507,汽车服务;汽车配件销售;汽车配件销售,B0FFF0245G
628,凯胜,贵州省,贵阳市,南明区,临沂凯胜物流有限公司,南明区中曹司社区服务中心花溪大道与四方河路口交汇处加油站旁贵阳老胶鞋厂,26.530884000000004,106.68338,生活服务;物流速递;物流速递,B0FFHJLMGI
629,凯胜,贵州省,贵阳市,白云区,凯盛酒店(白云大山洞店),白云区同心西路93号,26.682684000000002,106.6351,住宿服务;宾馆酒店;宾馆酒店,B0FFFNJI0N
630,凯胜,广东省,惠州市,惠东县,凯胜胶管批发部,惠东县环城南路南50米,22.960501999999998,114.70621100000001,购物服务;家居建材市场;建材五金市场,B0FFI2TGJN
631,凯胜,广东省,惠州市,惠城区,凯胜教育,惠城区三角湖南路一巷3号3楼,23.121014000000002,114.41367,科教文化服务;培训机构;培训机构,B0FFGPQPJQ
632,凯胜,广东省,惠州市,惠城区,凯胜课外辅导,惠城区东湖三街金沙文化广场2楼,23.083214,114.42596999999999,科教文化服务;科教文化场所;科教文化场所,B0FFIWO7H0
633,凯胜,广东省,惠州市,惠城区,凯胜教育中小学课外辅导,惠城区惠新东街与永新路交叉口西北50米,23.086719,114.42147800000001,科教文化服务;科教文化场所;科教文化场所,B0FFID2B6V
634,凯胜,江苏省,泰州市,靖江市,凯胜汽车服务,靖江市新洲路与莲沁路交叉口西50米,31.982263,120.24280900000001,汽车服务;汽车服务相关;汽车服务相关,B0FFG2G5H8
635,凯胜,江苏省,泰州市,泰兴市,凯胜数控培训中心,泰兴市中心街与海洋路交叉口东北200米,32.059682,120.06881299999999,科教文化服务;培训机构;培训机构,B020B0O6X9
636,凯胜,安徽省,滁州市,定远县,上海凯胜劳务中介(驻定远办事处),定远县荫陵路与西大街交叉口东100米,32.525335999999996,117.668976,生活服务;中介机构;中介机构,B0FFH7QAJM
637,凯胜,安徽省,滁州市,定远县,上海凯胜劳务中介(驻定远办事处),定远县荫陵路与西大街交叉口东100米,32.525335999999996,117.668976,生活服务;中介机构;中介机构,B0FFH7QAJM
638,凯胜,河南省,郑州市,金水区,凯胜科技通讯店,金水区郑汴路145号,34.747343,113.72431499999999,购物服务;购物相关场所;购物相关场所,B0FFIC5H06
639,凯胜,河南省,郑州市,二七区,郑州凯胜电子,二七区中州商场四楼33号,34.748238,113.66323999999999,购物服务;家电电子卖场;数码电子,B0FFGJ55V1
640,凯胜,河南省,郑州市,中牟县,凯胜粮油店,中牟县民主街集贸市场,34.714024,114.021652,购物服务;购物相关场所;购物相关场所,B0FFIYVSTD
641,凯胜,河南省,郑州市,金水区,凯胜UV打印,金水区玉凤路与凤鸣路交叉口中原广告市场东排十八号,34.750603999999996,113.711998,生活服务;生活服务场所;生活服务场所,B0FFHGA521
642,凯胜,河南省,郑州市,荥阳市,凯胜汽修,荥阳市乔楼镇万山路与310国道交叉口向南800米,34.759598,113.385977,汽车维修;汽车综合维修;汽车综合维修,B0FFILB4CW
643,凯胜,河南省,郑州市,管城回族区,郑州凯胜汽配,管城回族区南三环名优汽配广场W区5排12号,34.697140000000005,113.710948,汽车服务;汽车配件销售;汽车配件销售,B0FFFW9AGW
644,凯胜,河南省,郑州市,惠济区,凯胜体育跑步机健身器材,惠济区三全路省体育中心055号(尚体运动健康商城),34.837715,113.628298,公司企业;公司;公司,B01731BP1O
645,凯胜,河南省,郑州市,荥阳市,凯胜汽车专业钣金烤漆,荥阳市塔山路与站南东路交叉口西北50米,34.798128000000005,113.39345,汽车服务;汽车养护/装饰;汽车养护,B0FFF43DE0
646,凯胜,河南省,郑州市,中牟县,郑州凯胜润滑油销售有限公司,中牟县怡景路与远航路交叉口南200米,34.668744000000004,113.939582,公司企业;公司企业;公司企业,B0FFI2A6JD
647,凯胜,河南省,郑州市,管城回族区,凯盛通讯城,管城回族区陇海东路189号,34.739478999999996,113.66757,购物服务;家电电子卖场;数码电子|购物服务;家电电子卖场;手机销售,B01730JK9I
648,凯胜,黑龙江省,佳木斯市,向阳区,凯胜羽毛球专卖(松花江体育西林路店),向阳区西林路302号,46.815323,130.361619,购物服务;购物相关场所;购物相关场所,B0FFGP9IAW
649,凯胜,黑龙江省,佳木斯市,向阳区,凯胜羽毛球专卖(松花江体育西林路店),向阳区西林路302号,46.815323,130.361619,购物服务;购物相关场所;购物相关场所,B0FFGP9IAW
650,凯胜,河南省,焦作市,沁阳市,凯胜家纺,沁阳市凯伦公馆一楼,35.090847,112.92601100000002,购物服务;购物相关场所;购物相关场所,B0FFIA48ZY
651,凯胜,河南省,焦作市,武陟县,凯胜车业,武陟县三阳大街北50米,35.112712,113.280749,摩托车服务;摩托车销售;摩托车销售,B0FFFWHQPK
652,凯胜,河南省,焦作市,武陟县,凯胜美发店,武陟县021县道西50米,35.068940999999995,113.37588400000001,生活服务;美容美发店;美容美发店,B0FFIATQCQ
653,凯胜,海南省,儋州市,儋州市,凯胜汽车配件经销商,儋州市人民西路636号附近,19.507625,109.55468400000001,汽车服务;汽车配件销售;汽车配件销售,B0FFJ0UM0Z
654,凯胜,海南省,儋州市,儋州市,凯胜汽车配件经销商,儋州市人民西路636号附近,19.507625,109.55468400000001,汽车服务;汽车配件销售;汽车配件销售,B0FFJ0UM0Z
655,凯胜,四川省,成都市,武侯区,凯胜(伊藤洋华堂双楠店),武侯区二环路西一段逸都路6号同辉国际购物中心4楼,30.645744,104.020565,购物服务;专卖店;专营店,B001C90PIX
656,凯胜,四川省,成都市,青羊区,凯胜通讯城,青羊区太升南路153号,30.665843,104.078536,购物服务;购物相关场所;购物相关场所,B0FFI1ICMU
657,凯胜,四川省,成都市,武侯区,凯胜移民,武侯区领事馆路7号保利中心南塔2702室,30.624292999999998,104.069542,生活服务;生活服务场所;生活服务场所,B0FFHLQQI8
658,凯胜,四川省,成都市,龙泉驿区,四川省凯胜创威建筑劳务有限公司,龙泉驿区龙泉街办公园路258号30栋3单元3层301号,30.597145,104.29475,公司企业;公司;公司,B0FFH0RFHY
659,凯胜,福建省,漳州市,诏安县,凯胜通讯,诏安县南诏镇武夷名仕圆19栋d112号,23.717088,117.15916599999998,购物服务;家电电子卖场;手机销售,B0FFGJ5WE0
660,凯胜,福建省,漳州市,芗城区,凯胜房产,芗城区新浦路前锋新村34幢,24.505876999999998,117.66350800000001,生活服务;中介机构;中介机构,B0FFHMO3B0
661,凯胜,福建省,漳州市,云霄县,凯胜企业管理有限责任公司,云霄县溪南路与高洋路交叉口西北150米,23.937442,117.344668,公司企业;公司企业;公司企业,B0FFIDN4RI
662,凯胜,内蒙古自治区,包头市,东河区,凯胜不锈钢,东河区巴彦塔拉西大街29号附近,40.58762,109.99556499999998,购物服务;家居建材市场;建材五金市场,B0FFJ1RVZ9
663,凯胜,内蒙古自治区,包头市,东河区,凯胜印刷有限公司,东河区留宝窑北50米,40.597775,110.055949,生活服务;生活服务场所;生活服务场所,B0FFIJUQU1
664,凯胜,河北省,衡水市,安平县,凯胜办公家具商场,安平县西马路93号附近,38.229483,115.51185600000001,购物服务;家居建材市场;家具城,B0FFJ59N9P
665,凯胜,河北省,衡水市,冀州区,凯胜龙汽车用品,冀州区冀州镇长安路与建设街西行200米,37.538986,115.57363000000001,汽车服务;汽车养护/装饰;汽车养护,B0FFGE4SF1
666,凯胜,河北省,衡水市,冀州区,凯胜龙车饰,冀州区冀州镇长安路与金鸡大街交叉口南行50米路东,37.535552,115.587598,汽车服务;汽车服务相关;汽车服务相关,B0FFI26YAT
667,凯胜,内蒙古自治区,兴安盟,扎赉特旗,凯胜五金机电店,扎赉特旗111国道附近,47.057592,122.501299,购物服务;家居建材市场;建材五金市场,B0FFHX9RYO
668,凯胜,内蒙古自治区,兴安盟,扎赉特旗,凯胜五金机电店,扎赉特旗111国道附近,47.057592,122.501299,购物服务;家居建材市场;建材五金市场,B0FFHX9RYO
669,凯胜,吉林省,辽源市,西安区,凯胜生鲜水果蔬菜便民店,西安区仙泰街176号附近,42.916472,125.16243600000001,购物服务;综合市场;综合市场,B0FFI76DGV
670,凯胜,吉林省,辽源市,西安区,凯胜生鲜水果蔬菜便民店,西安区仙泰街176号附近,42.916472,125.16243600000001,购物服务;综合市场;综合市场,B0FFI76DGV
671,凯胜,山西省,长治市,城区,凯胜名烟名酒,城区长兴北路52号附近,36.205360999999996,113.125464,购物服务;专卖店;烟酒专卖店,B0FFG9D51H
672,凯胜,山西省,长治市,城区,凯胜名烟名酒,城区长兴北路52号附近,36.205360999999996,113.125464,购物服务;专卖店;烟酒专卖店,B0FFG9D51H
673,凯胜,江苏省,南通市,启东市,凯胜建材,启东市长龙东街128号,31.820386,121.676024,购物服务;家居建材市场;家居建材市场,B0FFJ5KAVF
674,凯胜,江苏省,南通市,海门市,凯盛家纺股份有限公司(管委会大楼西北),海门市高新区富江路588号,31.892345000000002,121.147989,公司企业;公司;公司,B0FFIAY4JR
675,凯胜,浙江省,湖州市,长兴县,长兴凯胜体育用品有限公司,长兴县画溪街道雉州大道267号,30.982498,119.91003400000001,公司企业;公司;公司,B0FFHGSVBI
676,凯胜,浙江省,湖州市,长兴县,长兴凯胜体育用品有限公司,长兴县画溪街道雉州大道267号,30.982498,119.91003400000001,公司企业;公司;公司,B0FFHGSVBI
677,凯胜,甘肃省,庆阳市,正宁县,凯胜商务宾馆,正宁县宫河镇宫河东街,35.32963,108.09951000000001,住宿服务;住宿服务相关;住宿服务相关,B0FFH852J5
678,凯胜,甘肃省,庆阳市,宁县,凯盛广告,宁县新宁路7号,35.503107,107.922591,生活服务;生活服务场所;生活服务场所,B0FFGJCIF1
679,凯胜,黑龙江省,哈尔滨市,五常市,凯盛门业,五常市太平大街与152县道交叉口西南50米,45.236938,126.865485,购物服务;购物相关场所;购物相关场所,B0FFHTWX7Y
680,凯胜,黑龙江省,哈尔滨市,五常市,凯盛门业,五常市太平大街与152县道交叉口西南50米,45.236938,126.865485,购物服务;购物相关场所;购物相关场所,B0FFHTWX7Y
681,凯胜,黑龙江省,双鸭山市,友谊县,凯胜羽毛球专卖(五环体育用品商店),友谊县步行街新天地,46.775875,131.80901699999998,购物服务;购物相关场所;购物相关场所,B0FFGNLHB1
682,凯胜,黑龙江省,双鸭山市,友谊县,凯胜羽毛球专卖(五环体育用品商店),友谊县步行街新天地,46.775875,131.80901699999998,购物服务;购物相关场所;购物相关场所,B0FFGNLHB1
683,凯胜,山西省,晋城市,城区,凯胜(城区道君服装柜台店),城区圣亚品牌服饰广场负一层运动城,35.495726,112.84353700000001,购物服务;专卖店;专营店,B01640MR7L
684,凯胜,山西省,晋城市,城区,凯胜(城区道君服装柜台店),城区圣亚品牌服饰广场负一层运动城,35.495726,112.84353700000001,购物服务;专卖店;专营店,B01640MR7L
685,凯胜,甘肃省,张掖市,甘州区,河北凯胜轻钢龙骨批发,甘州区大道东部建材市场S区一层,38.945956,100.482159,购物服务;购物相关场所;购物相关场所,B0FFH4667W
686,凯胜,甘肃省,张掖市,甘州区,河北凯胜轻钢龙骨批发,甘州区大道东部建材市场S区一层,38.945956,100.482159,购物服务;购物相关场所;购物相关场所,B0FFH4667W
687,凯胜,广西壮族自治区,南宁市,西乡塘区,凯胜微型车汽修汽配,西乡塘区214省道与324国道交叉口南50米,22.907819,108.10216399999999,汽车维修;汽车维修;汽车维修,B0FFI5B8CK
688,凯胜,广西壮族自治区,南宁市,西乡塘区,凯胜披萨(科德店),西乡塘区科德西路6号瀚林君庭1109号(中国民生银行斜对面),22.848093,108.264619,餐饮服务;餐饮相关场所;餐饮相关,B0FFIG7MVH
689,凯胜,辽宁省,辽阳市,白塔区,凯胜家纺(襄平街),白塔区首山镇武圣路96号,41.267581,123.179794,购物服务;家居建材市场;布艺市场,B01A300LQM
690,凯胜,辽宁省,辽阳市,辽阳县,凯胜轮胎服务店,辽阳县赛河线,40.990957,123.572795,汽车服务;汽车配件销售;汽车配件销售,B0FFJ0CISS
691,凯胜,山东省,青岛市,平度市,平度市凯胜旭商店,平度市贸易城三区17号楼东(青岛路南),36.777008,119.95938000000001,购物服务;便民商店/便利店;便民商店/便利店,B0FFHVM2YV
692,凯胜,山东省,青岛市,平度市,凯胜广告(同和路),平度市同和街道办事处同和路112号,36.737978999999996,119.931817,公司企业;公司;广告装饰,B02140WND8
693,凯胜,山东省,青岛市,胶州市,青岛凯胜祥建筑材料,胶州市龙海路与397省道交叉口北200米,36.169445,120.015533,公司企业;公司;公司,B0FFH92DL1
694,凯胜,山东省,青岛市,城阳区,青岛凯盛汽车修理厂,城阳区威青公路与阜城路交叉口东南50米,36.286064,120.41071299999999,汽车维修;汽车综合维修;汽车综合维修,B02140WNW3
695,凯胜,四川省,绵阳市,涪城区,凯胜德汽贸,涪城区机场西路68号附近,31.430182000000002,104.750068,汽车销售;汽车销售;汽车销售,B0FFIQGKBJ
696,凯胜,四川省,绵阳市,江油市,暴雪电竞俱乐部(凯胜店),江油市太平镇解放路北段亚君诗城国际一期14栋商业,31.785365000000002,104.74065999999999,体育休闲服务;娱乐场所;网吧,B0FFIZK2AN
697,凯胜,四川省,绵阳市,涪城区,凯盛家居软装馆,涪城区石塘镇毅德商贸城b区上层13栋,31.438783,104.724528,购物服务;家居建材市场;家居建材市场,B0FFFV5H5P
698,凯胜,安徽省,淮南市,潘集区,凯胜摩配,潘集区平圩镇平圩中心学校附近,32.677723,116.9212,摩托车服务;摩托车服务相关;摩托车服务相关,B0FFG56FE6
699,凯胜,安徽省,淮南市,潘集区,凯胜摩配,潘集区平圩镇平圩中心学校附近,32.677723,116.9212,摩托车服务;摩托车服务相关;摩托车服务相关,B0FFG56FE6
700,凯胜,海南省,陵水黎族自治县,陵水黎族自治县,南湾猴岛金凯胜宾馆,陵水黎族自治县望海大道90号,18.412339000000003,109.967054,住宿服务;宾馆酒店;宾馆酒店,B0FFFZZYFW
701,凯胜,海南省,陵水黎族自治县,陵水黎族自治县,南湾猴岛金凯胜宾馆,陵水黎族自治县望海大道90号,18.412339000000003,109.967054,住宿服务;宾馆酒店;宾馆酒店,B0FFFZZYFW
702,凯胜,江西省,上饶市,鄱阳县,李宁·凯胜乒羽(鄱阳专卖店),鄱阳县商业大道与鄱阳湖大道交叉口南200米,29.010438,116.69943,购物服务;体育用品店;户外用品,B0FFGWGG3P
703,凯胜,江西省,上饶市,信州区,李宁(凯胜专卖店),信州区中山路逸夫教育集团东50米,28.447174,117.980319,购物服务;体育用品店;李宁专卖店,B0FFF4LJY4
704,凯胜,广西壮族自治区,柳州市,鱼峰区,凯胜食品经营部,鱼峰区岩村路64号,24.302173,109.417229,购物服务;购物相关场所;购物相关场所,B0FFHVD1RJ
705,凯胜,广西壮族自治区,柳州市,柳南区,凯胜健身馆(银海店),柳南区航生路银海小区27栋1楼2楼(大润发后面),24.284578,109.3933,体育休闲服务;运动场馆;健身中心,B0FFHEG5QB
706,凯胜,广西壮族自治区,柳州市,城中区,凯胜圣尊健身房,城中区嘉逸财富大厦A座,24.328626999999997,109.43463899999999,体育休闲服务;运动场馆;运动场所,B0FFHZY72H
707,凯胜,广西壮族自治区,柳州市,柳北区,凯胜健身游泳馆,柳北区广场路地王公馆七楼,24.32085,109.41185,体育休闲服务;运动场馆;游泳馆,B0FFHU924E
708,凯胜,广西壮族自治区,柳州市,柳北区,凯胜国际健身馆(地王店),柳北区广场路地王财富中心7层(步步高广场旁),24.320444000000002,109.411569,体育休闲服务;运动场馆;健身中心,B0FFGP87SH
709,凯胜,广西壮族自治区,柳州市,城中区,凯胜圣尊健身游泳馆,城中区嘉逸财富大厦A座1楼,24.328626999999997,109.43463899999999,体育休闲服务;运动场馆;游泳馆,B0FFI0ZVY3
710,凯胜,湖北省,十堰市,茅箭区,凯胜商城,茅箭区城西路金星市场,32.641009000000004,110.785224,购物服务;购物相关场所;购物相关场所,B0FFIA89DL
711,凯胜,湖北省,十堰市,茅箭区,凯胜特产批发商行,茅箭区二堰街道南岳路大臣市场14栋11号,32.621953999999995,110.769325,购物服务;购物相关场所;购物相关场所,B0FFH3CV9B
712,凯胜,新疆维吾尔自治区,克拉玛依市,克拉玛依区,凯胜文体用品,克拉玛依区星河路36-6号附近,45.612434,84.873462,购物服务;文化用品店;文化用品店,B0FFG6G6QU
713,凯胜,新疆维吾尔自治区,克拉玛依市,克拉玛依区,凯胜文体用品,克拉玛依区星河路36-6号附近,45.612434,84.873462,购物服务;文化用品店;文化用品店,B0FFG6G6QU
714,凯胜,内蒙古自治区,通辽市,霍林郭勒市,凯胜防水,霍林郭勒市宝日呼吉尔街道大贸易街农村信用社对面,45.531040000000004,119.65189299999999,购物服务;家居建材市场;建材五金市场,B0FFH3ILEI
715,凯胜,内蒙古自治区,通辽市,开鲁县,凯胜车业,开鲁县303国道北50米,43.665255,121.563451,汽车服务;汽车服务相关;汽车服务相关,B0FFHWW8N9
716,凯胜,湖北省,襄阳市,老河口市,老河口凯胜文体,老河口市东启街与学府路交叉口西50米,32.383883000000004,111.673276,购物服务;专卖店;专营店,B02C60PQCI
717,凯胜,湖北省,襄阳市,襄州区,凯胜加工部,襄州区名城路28号附近,32.115364,112.173845,生活服务;生活服务场所;生活服务场所,B0FFI7JZXF
718,凯胜,浙江省,绍兴市,嵊州市,凯胜鞋业(甘霖店),嵊州市甘霖镇秀山路78号,29.523991,120.71873000000001,购物服务;专卖店;专营店,B023F0R5Q2
719,凯胜,浙江省,绍兴市,诸暨市,中国移动凯胜手机卖场,诸暨市大唐镇商城北路268号,29.698466999999997,120.158704,购物服务;家电电子卖场;手机销售,B0FFG3CX2K
720,凯胜,浙江省,绍兴市,诸暨市,诸暨市凯胜贸易有限公司,诸暨市苎萝路100号附近,29.704323,120.23013799999998,公司企业;公司;商业贸易,B0FFFGWB9M
721,凯胜,浙江省,绍兴市,越城区,凯胜文化传媒,越城区胜利东路365-367号富绅大厦15层,30.004893,120.600228,科教文化服务;传媒机构;传媒机构,B023F0P30T
722,凯胜,浙江省,绍兴市,越城区,绍兴凯盛国际贸易有限公司,越城区胜利东路17号凯盛国际大厦10层,30.004365000000004,120.582649,公司企业;公司;商业贸易,B023F00H4B
723,凯胜,湖南省,益阳市,赫山区,凯胜汽车维修服务中心,赫山区七里桥富民巷49号,28.575490999999996,112.385985,汽车维修;汽车综合维修;汽车综合维修,B0FFGDS3S9
724,凯胜,湖南省,益阳市,赫山区,凯胜汽车维修服务中心,赫山区七里桥富民巷49号,28.575490999999996,112.385985,汽车维修;汽车综合维修;汽车综合维修,B0FFGDS3S9
725,凯胜,江苏省,宿迁市,宿豫区,红星凯胜建材市场伟星管、金牛管(远东电缆专卖店),宿豫区顺河镇红星美凯龙,33.965195,118.334391,购物服务;购物相关场所;购物相关场所,B0FFIXTY12
726,凯胜,江苏省,宿迁市,宿豫区,红星凯胜建材装饰批发市场13栋金牛管业远东电缆,宿豫区[],33.965447,118.334369,购物服务;购物相关场所;购物相关场所,B0FFI0C1OO
727,凯胜,浙江省,宁波市,海曙区,凯胜电脑,海曙区石碶街道石泉路197号,29.831339,121.506027,购物服务;家电电子卖场;数码电子,B0FFFQ0OG9
728,凯胜,浙江省,宁波市,宁海县,凯胜模具,宁海县兴工三路35弄2幢8,29.318956,121.428096,购物服务;专卖店;专营店,B0FFGQ4WXI
729,凯胜,浙江省,宁波市,慈溪市,凯胜门窗,慈溪市孙塘路320号(公交公司正对面),30.169449,121.256194,购物服务;家居建材市场;建材五金市场,B0FFG7GJN3
730,凯胜,浙江省,宁波市,镇海区,凯胜电动车大卖场,镇海区骆驼街道南一西路68-37,29.978796999999997,121.58188600000001,购物服务;购物相关场所;购物相关场所,B0FFHG8H2C
731,凯胜,浙江省,宁波市,北仑区,浙江凯胜园林建设,北仑区沿山公路附近,29.908393,121.766627,公司企业;公司;建筑公司,B0FFGCWPHT
732,凯胜,浙江省,宁波市,海曙区,凯胜广告(汪弄),海曙区卖鱼路70号旁边的汪弄社区里汪弄53号,29.876936999999998,121.537699,生活服务;生活服务场所;生活服务场所,B0FFGA8GQW
733,凯胜,浙江省,宁波市,北仑区,浙江凯胜市政项目部,北仑区海兰路60,29.775427,121.971524,公司企业;公司;公司,B0FFG6ULE4
734,凯胜,浙江省,宁波市,海曙区,凯胜挖掘机配件商行,海曙区鄞县大道西段598-600号,29.820613,121.508356,汽车服务;汽车服务相关;汽车服务相关,B023E14EGE
735,凯胜,浙江省,宁波市,鄞州区,凯胜园林市政建设有限公司,鄞州区东部新城核心区域惊驾路与海晏路交汇处仙峰环合中心1号楼11楼,29.86297,121.61713799999998,公司企业;公司;公司,B0FFGCAF5G
736,凯胜,浙江省,宁波市,鄞州区,浙江凯胜园林市政建设有限公司江南路工程项目部,鄞州区江南路35号附近,29.885,121.594651,公司企业;公司企业;公司企业,B0FFIKNLK4
737,凯胜,新疆维吾尔自治区,乌鲁木齐市,新市区,乌鲁木齐华强凯胜文化传媒有限公司,新市区新疆职业大学家属楼1号楼4单元101,43.901574,87.539084,科教文化服务;传媒机构;传媒机构,B0FFGKE738
738,凯胜,新疆维吾尔自治区,乌鲁木齐市,新市区,宏腾凯胜活动板房有限公司,新市区安宁渠路52号,43.904315999999994,87.527529,公司企业;公司;公司,B0FFFZU9YC
739,凯胜,湖南省,邵阳市,邵东县,邵东凯胜标准经营部,邵东县百兴路18号,27.252851,111.748306,购物服务;专卖店;专营店,B0FFGDS2D0
740,凯胜,湖南省,邵阳市,邵东县,邵东凯胜标准经营部,邵东县百兴路18号,27.252851,111.748306,购物服务;专卖店;专营店,B0FFGDS2D0
741,凯胜,贵州省,黔南布依族苗族自治州,惠水县,凯胜家纺(惠水店),惠水县县府中路17附近,26.133171,106.65991299999999,购物服务;购物相关场所;购物相关场所,B03560NLK4
742,凯胜,贵州省,黔南布依族苗族自治州,独山县,凯胜步行街,独山县中南路9号,25.826567999999998,107.542179,购物服务;特色商业街;步行街,B0356003SW
743,凯胜,贵州省,黔南布依族苗族自治州,惠水县,三都凯胜农贸综合市场,惠水县新兴路与101省道交叉口南100米,26.04705,106.61285600000001,购物服务;综合市场;农副产品市场,B03560NGJ8
744,凯胜,贵州省,黔南布依族苗族自治州,独山县,凯胜步行街,独山县独山县,25.826322,107.542216,地名地址信息;交通地名;道路名,B0FFGQT05M
745,凯胜,贵州省,黔南布依族苗族自治州,独山县,凯胜步行街(公交站),独山县独山101路,25.826335999999998,107.54171799999999,交通设施服务;公交车站;公交车站相关,BV10859049
746,凯胜,贵州省,黔南布依族苗族自治州,独山县,凯胜步行街与南通北路交叉口,独山县独山县,25.82556,107.54323400000001,地名地址信息;交通地名;路口名,B0FFGGWR6L
747,凯胜,贵州省,黔南布依族苗族自治州,独山县,中南路与凯胜步行街交叉口,独山县独山县,25.826545,107.541919,地名地址信息;交通地名;路口名,B0FFGGEX91
748,凯胜,贵州省,黔南布依族苗族自治州,独山县,森马(凯胜步行街店),独山县凯胜步行街,25.826085,107.54278400000001,购物服务;服装鞋帽皮具店;品牌服装店,B03560NJC2
749,凯胜,贵州省,黔南布依族苗族自治州,独山县,鸿星尔克(凯胜步行街店),独山县中南路与凯胜步行街交叉口东南100米,25.825927,107.542428,购物服务;体育用品店;体育用品店,B03560NFSJ
750,凯胜,贵州省,黔南布依族苗族自治州,独山县,蜘蛛王(凯胜步行街店),独山县凯胜步行街与南通北路交叉口西南100米,25.824958,107.54282099999999,购物服务;服装鞋帽皮具店;品牌鞋店,B03560NJBV
751,凯胜,贵州省,黔南布依族苗族自治州,独山县,百斯盾(凯胜步行街),独山县凯胜步行街与南通北路交叉口西北100米,25.825969,107.54283899999999,购物服务;服装鞋帽皮具店;品牌服装店,B03560NFZZ
752,凯胜,贵州省,黔南布依族苗族自治州,独山县,千百惠(凯胜步行街),独山县凯胜步行街与南通北路交叉口北50米,25.825794000000002,107.543213,购物服务;服装鞋帽皮具店;服装鞋帽皮具店,B035600AS0
753,凯胜,贵州省,黔南布依族苗族自治州,独山县,与狼共舞(凯胜步行街店),独山县百泉镇南通北路佳美乐购物广场南50米,25.826007,107.54231899999999,购物服务;服装鞋帽皮具店;品牌服装店,B03560NIY6
754,凯胜,贵州省,黔南布依族苗族自治州,独山县,意尔康(秀峰西路店),独山县中南路与凯胜步行街交叉口东南100米,25.826237,107.542606,购物服务;服装鞋帽皮具店;品牌鞋店,B035600AK3
755,凯胜,安徽省,亳州市,利辛县,利辛县凯盛汽车有限公司(永兴路),利辛县工业园区永兴路,33.156756,116.17141399999998,公司企业;公司;公司,B022E0PAQO
756,凯胜,安徽省,亳州市,利辛县,利辛县凯盛汽车有限公司(永兴路),利辛县工业园区永兴路,33.156756,116.17141399999998,公司企业;公司;公司,B022E0PAQO
757,凯胜,陕西省,宝鸡市,金台区,凯胜棋牌,金台区跃进路与陈仓园一路交叉口东南50米,34.358024,107.173602,体育休闲服务;娱乐场所;棋牌室,B0FFIFG63Z
758,凯胜,陕西省,宝鸡市,渭滨区,凯胜棋牌,渭滨区文化路军转站院内,34.368393,107.149353,体育休闲服务;娱乐场所;棋牌室,B0FFJ4K5BQ
759,凯胜,陕西省,宝鸡市,金台区,凯盛棋牌(中山路),金台区中山路宝鸡大酒店隔壁,34.375479999999996,107.148398,体育休闲服务;娱乐场所;棋牌室,B0FFHJFSEP
760,凯胜,广东省,佛山市,南海区,凯胜门窗,南海区广海大道东附近,23.147074,112.93645,购物服务;家居建材市场;建材五金市场,B0FFJ5ML36
761,凯胜,广东省,佛山市,南海区,青岛凯胜焊割仪表,南海区广佛五金城五期A3座22号,23.111876000000002,113.18121699999999,购物服务;专卖店;专营店,B0FFFVUM4K
762,凯胜,广东省,佛山市,南海区,凯胜冷冻食品商行,南海区X513(沥雅路)大沥桂江三鸟批发市场9栋36号,23.125273,113.112572,购物服务;综合市场;农副产品市场,B0FFH8F3VU
763,凯胜,广东省,佛山市,顺德区,凯胜金属加工厂,顺德区乐福二路与创业二路交叉口东北50米旭东钢铁物流中心,22.948304,113.12702,公司企业;工厂;工厂,B02F503LTL
764,凯胜,广东省,佛山市,南海区,凯胜汽配,南海区广佛路与沥东路交叉口西南50米,23.107885999999997,113.12880200000001,汽车服务;汽车配件销售;汽车配件销售,B0FFH45RYB
765,凯胜,广东省,佛山市,南海区,凯胜纸品加工厂,南海区里水镇大冲象岗村口,23.162541,113.131128,公司企业;公司企业;公司企业,B0FFGODKRS
766,凯胜,广东省,佛山市,顺德区,凯胜金属加工厂,顺德区乐福三路与创业二路交叉口东北50米,22.94677,113.125997,公司企业;工厂;工厂,B0FFJ4AEDS
767,凯胜,广东省,佛山市,顺德区,凯胜物业服务有限公司(顺雅名筑管理处),顺德区凤翔路33号附近,22.843877,113.22422900000001,生活服务;中介机构;中介机构,B0FFHSEXX7
768,凯胜,广东省,佛山市,顺德区,光普凯胜公共质押监管仓库,顺德区乐福二路与创业二路交叉口东南50米,22.947873,113.12682099999999,公司企业;公司;公司,B0FFH42SZM
769,凯胜,广东省,佛山市,顺德区,凯勝地磅150吨24小时服务,顺德区乐福三路与创业三路交叉口东北50米,22.94596,113.127793,公司企业;公司;公司,B0FFHQMPN9
770,凯胜,广东省,佛山市,顺德区,凯盛租房,顺德区建设西二路与河北二路交叉口西南50米,22.7814,113.15664699999999,住宿服务;住宿服务相关;住宿服务相关,B0FFI6K1MN
771,凯胜,广东省,佛山市,顺德区,智存公司,顺德区乐福二路与创业二路交叉口西南100米,22.947435000000002,113.126424,公司企业;公司;公司,B0FFGOBMEP
772,凯胜,江西省,赣州市,章贡区,赣州市东凯胜汽车贸易有限公司,章贡区赣州经济技术开发区迎宾大道26号华坚国际汽车城d13,25.848217,114.90109,汽车销售;汽车销售;汽车销售,B0FFG9E61G
773,凯胜,江西省,赣州市,章贡区,赣州市东凯胜汽车贸易有限公司,章贡区客家大道与文峰北路交叉口北100米,25.835732999999998,114.902441,汽车销售;货车销售;货车销售,B0FFG3ZB71
774,凯胜,湖北省,武汉市,蔡甸区,凯胜建材,蔡甸区经济技术开发区薛峰社区商铺146栋(附8),30.459295,114.09385,购物服务;家居建材市场;建材五金市场,B0FFFV5XLB
775,凯胜,湖北省,武汉市,硚口区,正新鸡排(凯胜店),硚口区中山大道228号汉华大厦旁,30.569041,114.265252,餐饮服务;餐饮相关场所;餐饮相关,B0FFHID787
776,凯胜,海南省,三亚市,天涯区,凯胜木业,天涯区槟榔河新联村,18.287337,109.476449,购物服务;家居建材市场;家具城,B0FFFH0DEB
777,凯胜,海南省,三亚市,天涯区,凯胜农机,天涯区凤凰路294号附近,18.2991,109.45441799999999,购物服务;专卖店;专营店,B0FFFRT2L0
778,凯胜,海南省,三亚市,天涯区,三亚凯胜航空售票处,天涯区解放路585,18.255604,109.50339699999999,生活服务;售票处;飞机票代售点,B03830MOXM
779,凯胜,海南省,三亚市,吉阳区,三亚鑫凯盛石材,吉阳区荔枝沟荣兴建材城E区3号,18.291103,109.51711999999999,购物服务;家居建材市场;灯具瓷器市场,B03830N5GZ
780,凯胜,海南省,三亚市,吉阳区,三亚凯胜达涂料商行,吉阳区荔枝沟路134-5,18.294988,109.52287199999999,购物服务;家居建材市场;建材五金市场,B0FFFGMUZV
781,凯胜,河南省,商丘市,梁园区,凯盛家纺(神火大道),梁园区凯旋东街与步行街交叉口西南150米,34.437637,115.65490700000001,购物服务;家居建材市场;布艺市场,B0FFFFYTK8
782,凯胜,河南省,商丘市,柘城县,凯盛家纺(文庙南街),柘城县文庙南街与长乐西路交叉口西北50米,34.072525,115.309676,购物服务;家居建材市场;布艺市场,B0FFFFZ65A
783,凯胜,河南省,商丘市,永城市,凯盛家纺(百花路),永城市百花路步行街人民广场对面多和馅饼往南100米,33.927884999999996,116.44611200000001,购物服务;家居建材市场;布艺市场,B0FFG360ND
784,凯胜,广东省,珠海市,香洲区,凯胜建筑劳务有限公司,香洲区港昌路341号3单元3A21号御龙商务四楼,22.223354,113.53548400000001,公司企业;公司企业;公司企业,B0FFGBNLFS
785,凯胜,广东省,珠海市,香洲区,凯胜建筑劳务有限公司,香洲区港昌路341号3单元3A21号御龙商务四楼,22.223354,113.53548400000001,公司企业;公司企业;公司企业,B0FFGBNLFS
786,凯胜,内蒙古自治区,乌兰察布市,集宁区,凯胜石材,集宁区怀远南路西50米,40.971474,113.12230500000001,购物服务;家居建材市场;建材五金市场,B0FFIHKFRW
787,凯胜,内蒙古自治区,乌兰察布市,商都县,凯胜宾馆,商都县105省道东50米,41.533244,113.584428,住宿服务;住宿服务相关;住宿服务相关,B0FFI9TH21
788,凯胜,内蒙古自治区,乌兰察布市,卓资县,凯胜商务宾馆,卓资县龙胜路佳兴3期69号,40.890543,112.586754,住宿服务;宾馆酒店;宾馆酒店,B0FFFAN3TD
789,凯胜,内蒙古自治区,乌兰察布市,兴和县,北京启航凯胜教育,兴和县兴通路与育才街交叉口西150米,40.875448999999996,113.83376799999999,科教文化服务;培训机构;培训机构,B0FFIEETTC
790,红双喜,辽宁省,朝阳市,朝阳县,红双喜太阳能(赵玉虎太阳能经销处),朝阳县羊山实验中学西南50米(鞍羊线南),41.187139,120.369993,购物服务;家电电子卖场;家电电子卖场,B0FFGA6IA3
791,红双喜,辽宁省,朝阳市,朝阳县,红双喜太阳能(赵玉虎太阳能经销处),朝阳县羊山实验中学西南50米(鞍羊线南),41.187139,120.369993,购物服务;家电电子卖场;家电电子卖场,B0FFGA6IA3
792,红双喜,甘肃省,定西市,通渭县,红双喜庆典礼仪文化,通渭县襄和路与通渭互通立交桥交叉口北150米,35.208902,105.25152299999999,生活服务;生活服务场所;生活服务场所,B0FFFWM76Z
793,红双喜,甘肃省,定西市,通渭县,红双喜庆典礼仪文化,通渭县襄和路与通渭互通立交桥交叉口北150米,35.208902,105.25152299999999,生活服务;生活服务场所;生活服务场所,B0FFFWM76Z
794,红双喜,广西壮族自治区,贺州市,八步区,红双喜,八步区向阳路与鞍阳巷交叉口东南50米,24.411231,111.556358,购物服务;体育用品店;体育用品店,B06EE0LZQZ
795,红双喜,广西壮族自治区,贺州市,八步区,红双喜家纺,八步区桂岭镇东区市场,24.669412,111.811641,购物服务;购物相关场所;购物相关场所,B0FFH3E8XV
796,红双喜,山东省,聊城市,东昌府区,红双喜,东昌府区柳园路百货大楼金鼎购物中心4层,36.456507,115.98961399999999,购物服务;体育用品店;体育用品店,B0FFH1Q9XX
797,红双喜,山东省,聊城市,东昌府区,红双喜布业,东昌府区258省道西50米,36.300093,116.017552,购物服务;家居建材市场;布艺市场,B0FFFZVKWO
798,红双喜,山东省,聊城市,莘县,红双喜宅配,莘县富强街与西环路交叉口东150米,35.931936,115.634019,购物服务;家居建材市场;家居建材市场,B0FFIOUY53
799,红双喜,山东省,聊城市,临清市,红双喜炉具,临清市永清路与红星路交叉口北200米,36.845196,115.717224,购物服务;购物相关场所;购物相关场所,B0FFGYZN2H
800,红双喜,山东省,聊城市,东昌府区,红双喜门业,东昌府区香江二期东经五街48号,36.474471,115.975249,购物服务;家居建材市场;家居建材市场,B0FFG34CVK
801,红双喜,山东省,聊城市,茌平县,红双喜婚庆,茌平县中铺街与府前大街交叉口北50米,36.588726,116.112175,生活服务;生活服务场所;生活服务场所,B0FFFV4TMD
802,红双喜,山东省,聊城市,东阿县,红双喜庆典,东阿县曙光街东阿广场大石头正对过,36.337975,116.245899,生活服务;生活服务场所;生活服务场所,B0FFFV3C26
803,红双喜,山东省,聊城市,茌平县,红双喜家具城,茌平县商业街与文化路交叉口西100米,36.6634,116.22726899999999,购物服务;家居建材市场;家具城,B0FFHFD0LK
804,红双喜,山东省,聊城市,阳谷县,红双喜窗帘城,阳谷县凤祥超市(郭屯店),36.291407,115.914227,购物服务;家居建材市场;家居建材市场,B0FFI1NU8V
805,红双喜,山东省,聊城市,冠县,红双喜太阳能,冠县清泉街道振兴东路中国银行西50米,36.485689,115.451097,购物服务;购物相关场所;购物相关场所,B0FFFR4WPK
806,红双喜,山东省,聊城市,莘县,红双喜太阳能(太阳能区域总代理),莘县伊园街,36.245829,115.69878100000001,购物服务;家电电子卖场;家电电子卖场,B0FFG72K6G
807,红双喜,山东省,聊城市,东昌府区,红双喜庆典婚庆鲜花,东昌府区振兴路39号附近,36.468354999999995,115.99008400000001,生活服务;生活服务场所;生活服务场所,B0FFFA6BLG
808,红双喜,山东省,聊城市,阳谷县,红双喜布匹窗帘,阳谷县七一运河路七级镇政府东北150米,36.245891,116.03716599999998,购物服务;家居建材市场;布艺市场,B0FFG0HF20
809,红双喜,山东省,聊城市,茌平县,茌平县红双喜婚姻介绍所,茌平县新政路北50米,36.585169,116.257705,生活服务;生活服务场所;生活服务场所,B0FFFXKGO1
810,红双喜,山东省,聊城市,冠县,长江家俱城·红双喜沙发专卖,冠县商贸路与堠码路交叉口东100米,36.663548999999996,115.691771,购物服务;家居建材市场;家居建材市场,B0FFI3ZXAM
811,红双喜,山东省,聊城市,茌平县,红双囍饭店(建设路店),茌平县建设路与龙山南街交叉口西南100米,36.562737,116.2349,餐饮服务;中餐厅;中餐厅,B0FFG6Q72L
812,红双喜,山东省,聊城市,茌平县,红双囍婚庆,茌平县双平东路北50米,36.455794,116.264544,生活服务;生活服务场所;生活服务场所,B0FFFWPK4Z
813,红双喜,山东省,聊城市,冠县,冬冬造型,冠县红双喜家具(冠北路北),36.649056,115.415438,生活服务;美容美发店;美容美发店,B0FFHQ270V
814,红双喜,山东省,聊城市,冠县,水循环美容护肤理疗馆,冠县红双喜家具(冠北路北),36.649244,115.41538200000001,生活服务;美容美发店;美容美发店,B0FFHPZWH8
815,红双喜,山东省,聊城市,冠县,秦帝集成环保灶,冠县振兴路118号附近,36.485678,115.451206,购物服务;家居建材市场;厨卫市场,B0FFG98N4L
816,红双喜,北京市,北京市,海淀区,红双喜,海淀区皂君庙路28号西单商场皂君庙购物中心B1,39.958964,116.33579499999999,购物服务;体育用品店;体育用品店,B0FFG06IU1
817,红双喜,北京市,北京市,海淀区,红双喜(双安商场),海淀区北三环西路38号双安商场F5层,39.96673,116.325432,购物服务;体育用品店;体育用品店,B0FFFFGMR1
818,红双喜,北京市,北京市,西城区,红双喜(百盛购物中心复兴门店北楼),西城区复兴门内大街101号百盛购物中心复兴门店北楼F5层,39.908840999999995,116.35854199999999,购物服务;体育用品店;体育用品店,B0FFFFXRWZ
819,红双喜,北京市,北京市,丰台区,红双喜(集美家居北京大红门店4号厅),丰台区西马场甲14号集美家居北京大红门店4号厅F3层,39.833285,116.394719,购物服务;体育用品店;体育用品店,B0FFHEQZXO
820,红双喜,北京市,北京市,密云区,红双喜(燕赛奥特莱斯购物中心),密云区鼓楼南大街3号燕赛奥特莱斯购物中心F2层,40.374371999999994,116.844655,购物服务;体育用品店;体育用品店,B0FFHCS0G9
821,红双喜,北京市,北京市,丰台区,红双喜&双鱼(集美家居北京大红门店4号厅),丰台区西马场甲14号集美家居北京大红门店4号厅F3层,39.833225,116.39485800000001,购物服务;体育用品店;体育用品店,B0FFHEQYRM
822,红双喜,北京市,北京市,顺义区,红双喜电器修理,顺义区后沙峪村中心街北100米,40.105599,116.540695,生活服务;维修站点;维修站点,B0FFFWW4RN
823,红双喜,北京市,北京市,平谷区,陈记红双囍,平谷区西寺渠东路9号(平谷雪花啤酒厂东侧),40.133472,117.11851599999999,餐饮服务;中餐厅;特色/地方风味餐厅,B0FFFACSHB
824,红双喜,北京市,北京市,丰台区,红双囍床上用品,丰台区张仪村路41-6号靠近天大商城天大商城里面二楼B009,39.887187,116.23168700000001,购物服务;家居建材市场;布艺市场,B0FFH8V25F
825,红双喜,陕西省,渭南市,韩城市,红双喜(喜庆店),韩城市龙门镇玉镜街,35.607812,110.557842,购物服务;购物相关场所;购物相关场所,B0FFH6L41Y
826,红双喜,陕西省,渭南市,澄城县,红双囍家具,澄城县韦南路与108国道交叉口东100米,34.970353,109.931919,购物服务;家居建材市场;家具城,B0FFG575DB
827,红双喜,新疆维吾尔自治区,哈密市,伊州区,沙地酒庄,伊州区天山北路1号邮政局大门右侧,42.832825,93.50309399999999,餐饮服务;餐饮相关场所;餐饮相关,B0FFHDZ7EC
828,红双喜,新疆维吾尔自治区,哈密市,伊州区,沙地酒庄,伊州区天山北路1号邮政局大门右侧,42.832825,93.50309399999999,餐饮服务;餐饮相关场所;餐饮相关,B0FFHDZ7EC
829,红双喜,江苏省,南京市,雨花台区,红双喜房产,雨花台区玉兰路19-27号,31.983595,118.791228,生活服务;中介机构;中介机构,B0FFFZE1KK
830,红双喜,江苏省,南京市,秦淮区,盛世·红双喜,秦淮区太平南路1号新世纪广场B座2710室(近中山东路),32.040091,118.79486999999999,购物服务;购物相关场所;购物相关场所,B001905DVR
831,红双喜,天津市,天津市,宝坻区,红双喜婚庆,宝坻区南三路(南关大街口附近),39.712264000000005,117.305526,生活服务;摄影冲印店;摄影冲印,B001610RJ6
832,红双喜,天津市,天津市,武清区,红双喜厨具超市,武清区南东路东200米,39.471447999999995,117.022866,购物服务;购物相关场所;购物相关场所,B0FFG5969Z
833,红双喜,天津市,天津市,蓟州区,红双喜电器布城,蓟州区X752与宝平公路交叉口S101与X752交叉口西北150米,39.849787,117.26125800000001,购物服务;购物相关场所;购物相关场所,B0016157JO
834,红双喜,天津市,天津市,武清区,天津红双喜铝品有限公司,武清区湾子村,39.441417,117.02515600000001,公司企业;公司;公司,B0FFHHQ195
835,红双喜,天津市,天津市,武清区,天津市红双喜有限公司,武清区南蔡村,39.443886,117.025029,公司企业;公司;公司,B00160D8T5
836,红双喜,天津市,天津市,南开区,天津红双喜乒乓球台总代理,南开区卫津南路150号,39.07116,117.18373100000001,购物服务;购物相关场所;购物相关场所,B0FFJ1E9GC
837,红双喜,天津市,天津市,宝坻区,京东地产十二分公司,宝坻区南关大街红双喜婚纱摄影对面,39.712539,117.30511899999999,生活服务;生活服务场所;生活服务场所,B0FFHURMCP
838,红双喜,广西壮族自治区,防城港市,上思县,红双喜鞋城,上思县思阳镇永泰街52号,22.148649,107.981626,购物服务;服装鞋帽皮具店;服装鞋帽皮具店,B0FFGCNVU4
839,红双喜,广西壮族自治区,防城港市,上思县,红双喜鞋城,上思县思阳镇永泰街52号,22.148649,107.981626,购物服务;服装鞋帽皮具店;服装鞋帽皮具店,B0FFGCNVU4
840,红双喜,福建省,龙岩市,武平县,红双喜家具广场,武平县309省道东50米,25.105529999999998,116.0974,购物服务;家居建材市场;家居建材市场,B0FFHGP2G6
841,红双喜,福建省,龙岩市,武平县,红双喜家具商场(富力阳光东北),武平县309省道东50米,25.1055,116.097301,购物服务;家居建材市场;家具城,B0FFG4J2D4
842,红双喜,福建省,龙岩市,武平县,红双喜家具商场(中街西路),武平县环城西路85附近,25.091459,116.09848799999999,购物服务;家居建材市场;家具城,B025502MKJ
843,红双喜,山东省,莱芜市,莱城区,红双喜婚庆,莱城区吐丝口东路与深圳北路交叉口东北100米,36.317893,117.630875,生活服务;生活服务场所;生活服务场所,B0FFGUDAS3
844,红双喜,山东省,莱芜市,莱城区,红双喜婚庆,莱城区吐丝口东路与深圳北路交叉口东北100米,36.317893,117.630875,生活服务;生活服务场所;生活服务场所,B0FFGUDAS3
845,红双喜,云南省,红河哈尼族彝族自治州,个旧市,红双喜电磁炉,个旧市建设路与金湖西路交叉口西北150米,23.380434,103.155795,购物服务;购物相关场所;购物相关场所,B0FFG45GLO
846,红双喜,云南省,红河哈尼族彝族自治州,个旧市,红双喜电磁炉,个旧市建设路与金湖西路交叉口西北150米,23.380434,103.155795,购物服务;购物相关场所;购物相关场所,B0FFG45GLO
847,红双喜,四川省,巴中市,巴州区,红双喜宾馆(望王路东段),巴州区玉堂街道望王路东段552号3层,31.859792,106.765971,住宿服务;宾馆酒店;宾馆酒店,B0FFFEV2E5
848,红双喜,四川省,巴中市,巴州区,红双喜椅业中心,巴州区南池南路324号,31.848829,106.760954,购物服务;购物相关场所;购物相关场所,B033B0PJXD
849,红双喜,湖南省,常德市,武陵区,红双喜广告,武陵区芷兰街荷花社区沙港东路368号,29.05732,111.701674,生活服务;生活服务场所;生活服务场所,B0FFFT1MHP
850,红双喜,湖南省,常德市,武陵区,红双喜广告,武陵区芷兰街道芷兰荷花街沙港东路3号,29.060879999999997,111.703154,生活服务;生活服务场所;生活服务场所,B0FFGXPSMR
851,红双喜,湖南省,常德市,鼎城区,红双喜婚庆公司,鼎城区惠阳大道东50米,28.851659,111.66213799999998,生活服务;生活服务场所;生活服务场所,B0FFG0UBQ0
852,红双喜,安徽省,安庆市,宜秀区,红双喜专卖,宜秀区光彩一期B6-7号,30.543827,117.071198,购物服务;专卖店;专营店,B0FFFZEFFS
853,红双喜,安徽省,安庆市,桐城市,红双喜介绍所,桐城市龙眠西路72号,31.049656,116.944492,生活服务;中介机构;中介机构,B0FFHXP29I
854,红双喜,安徽省,安庆市,宿松县,红双喜家具城,宿松县长铺镇新河路69号,30.203685999999998,116.223499,购物服务;家居建材市场;家具城,B022C049E0
855,红双喜,安徽省,安庆市,怀宁县,红双喜婚纱婚庆(皖河路),怀宁县皖河路254号(教育局旁),30.728990000000003,116.82781999999999,生活服务;生活服务场所;生活服务场所,B0FFFWF0Q2
856,红双喜,吉林省,松原市,前郭尔罗斯蒙古族自治县,红双喜鲜花婚庆(三角公园店),前郭尔罗斯蒙古族自治县源江西路324号附近,45.120149,124.82285900000001,生活服务;生活服务场所;生活服务场所,B0FFGXHA0C
857,红双喜,吉林省,松原市,前郭尔罗斯蒙古族自治县,红双喜鲜花婚庆(三角公园店),前郭尔罗斯蒙古族自治县源江西路324号附近,45.120149,124.82285900000001,生活服务;生活服务场所;生活服务场所,B0FFGXHA0C
858,红双喜,湖南省,长沙市,岳麓区,红双喜花屋,岳麓区银杉路251号,28.232384999999997,112.951975,购物服务;花鸟鱼虫市场;花卉市场,B02DB05V0T
859,红双喜,湖南省,长沙市,望城区,红双喜家菜馆,望城区丁字联络线南50米,28.370012,112.90171000000001,餐饮服务;中餐厅;中餐厅,B0FFF4JRS3
860,红双喜,湖南省,长沙市,宁乡市,红双喜家私城,宁乡市大热门超市黄材店(黄材大道南),28.146675,112.1258,购物服务;家居建材市场;家具城,B0FFF47OGB
861,红双喜,湖南省,长沙市,望城区,红双喜图文中心工艺社,望城区旺旺中路77号,28.342678999999997,112.81749599999999,生活服务;生活服务场所;生活服务场所,B0FFF4MUI5
862,红双喜,湖南省,长沙市,芙蓉区,双喜门业,芙蓉区动感建材市场B区5栋14-15号,28.19345,113.058925,购物服务;家居建材市场;建材五金市场,B02DB0XSXJ
863,红双喜,湖南省,长沙市,望城区,望城县双喜工艺美术社,望城区旺旺中路77号,28.342643,112.817378,科教文化服务;科教文化场所;科教文化场所,B0FFFE5SXZ
864,红双喜,湖南省,长沙市,望城区,红喜家庭旅馆,望城区丁字湾街道商住南区C座1栋,28.36992,112.901758,住宿服务;旅馆招待所;旅馆招待所,B0FFFVUQI8
865,红双喜,湖南省,长沙市,望城区,避风塘(丁字镇纪检委西南),望城区丁字镇南区C座2栋石乡酒家对面第2排红双喜家菜馆正后排,28.37,112.90166,餐饮服务;休闲餐饮场所;休闲餐饮场所,B0FFF4JRS2
866,红双喜,广东省,湛江市,廉江市,红双喜电器有限公司,廉江市新风北路与新风北路西十一横巷交叉口东北50米,21.624928,110.274801,公司企业;公司;公司,B0FFGC5AHV
867,红双喜,广东省,湛江市,廉江市,红双喜电器有限公司,廉江市新风北路与新风北路西十一横巷交叉口东北50米,21.624928,110.274801,公司企业;公司;公司,B0FFGC5AHV
868,红双喜,河南省,漯河市,召陵区,红双囍家俬广场,召陵区万金村葛万线金福源购物广场旁,33.497203999999996,114.209149,购物服务;家居建材市场;家具城,B018B0MJ5U
869,红双喜,河南省,漯河市,召陵区,红双囍家俬广场,召陵区万金村葛万线金福源购物广场旁,33.497203999999996,114.209149,购物服务;家居建材市场;家具城,B018B0MJ5U
870,红双喜,湖北省,咸宁市,通山县,红双喜风扇厂,通山县[],29.504904999999997,114.76471799999999,公司企业;工厂;工厂,B0FFGX9YPW
871,红双喜,湖北省,咸宁市,通山县,红双喜风扇厂,通山县[],29.504904999999997,114.76471799999999,公司企业;工厂;工厂,B0FFGX9YPW
872,红双喜,浙江省,丽水市,莲都区,红双喜,莲都区四牌楼大众街111号,28.445446,119.915966,购物服务;体育用品店;体育用品店,B0FFGJKQ9T
873,红双喜,浙江省,丽水市,青田县,红双喜,青田县市场路与333省道交叉口西北150米,28.255008,120.215709,购物服务;家居建材市场;布艺市场,B0FFFYGDJU
874,红双喜,浙江省,丽水市,莲都区,红双喜发型公社,莲都区万象街道大众街111号,28.445456,119.91592800000001,生活服务;美容美发店;美容美发店,B0FFGY21XJ
875,红双喜,广东省,深圳市,龙岗区,红双喜(天虹商场),龙岗区龙岗大道3997号天虹商场4F层,22.642763000000002,114.195916,购物服务;体育用品店;体育用品店,B0FFHJDLTK
876,红双喜,广东省,深圳市,龙华区,红双喜川菜馆,龙华区一号路与隆添利商业步行街交叉口东南50米,22.741804000000002,114.016428,餐饮服务;中餐厅;中餐厅,B0FFFFU67C
877,红双喜,山东省,威海市,文登区,红双喜吉庆酒店,文登区[],36.938525,122.05894599999999,餐饮服务;中餐厅;中餐厅,B027701Q7D
878,红双喜,山东省,威海市,荣成市,红双喜KTV,荣成市成山大道东段101号(荣成市中医院斜对面),37.158545000000004,122.481926,体育休闲服务;娱乐场所;KTV,B02770IUEC
879,红双喜,山东省,威海市,环翠区,红双喜喜铺,环翠区实验中学东门安平巷16号楼,37.5141,122.131079,购物服务;专卖店;专营店,B0FFF9KG0O
880,红双喜,山东省,威海市,荣成市,红双喜婚庆礼仪公司,荣成市黄海南路101号附近,36.881715,122.428933,生活服务;生活服务场所;生活服务场所,B0FFICOMUJ
881,红双喜,山东省,威海市,环翠区,红双囍婚庆超市,环翠区经济技术开发区桥头镇桥头村桥兴路156号,37.314966,122.284747,购物服务;专卖店;专营店,B0277001A4
882,红双喜,山东省,威海市,荣成市,金尚名媛美甲,荣成市成山大道小孙家红双喜KTV北100米,37.159561,122.48194299999999,生活服务;美容美发店;美容美发店,B0FFGT7644
883,红双喜,山东省,威海市,环翠区,水波烟酒商行,环翠区育华路安平巷16号楼,37.514004,122.13111599999999,购物服务;专卖店;烟酒专卖店,B0FFG8LMBU
884,红双喜,吉林省,四平市,双辽市,红双囍大酒楼,双辽市绿洲大厦1楼,43.517994,123.48009099999999,餐饮服务;中餐厅;综合酒楼,B0FFGKXMHH
885,红双喜,吉林省,四平市,梨树县,红双囍礼仪庆典,梨树县069乡道北50米,43.342667999999996,124.58206200000001,生活服务;生活服务场所;生活服务场所,B0FFG8PHBJ
886,红双喜,云南省,曲靖市,沾益区,红双喜电器,沾益区六一巷与文艺路交叉口东50米,25.603542,103.82265699999999,购物服务;购物相关场所;购物相关场所,B0FFFS09E6
887,红双喜,云南省,曲靖市,麒麟区,红双喜招待所(南关社区卫生服务站东),麒麟区子午路与G60沪昆高速出口交叉口西北150米,25.478628,103.798284,住宿服务;旅馆招待所;旅馆招待所,B036A006MR
888,红双喜,山东省,临沂市,罗庄区,红双喜,罗庄区工业路86号附近,34.982215999999994,118.288331,生活服务;生活服务场所;生活服务场所,B0FFGLQCTO
889,红双喜,山东省,临沂市,兰山区,红双喜(九州商业大厦),兰山区解放路183号九州商业大厦F5层,35.066762,118.332274,购物服务;体育用品店;体育用品店,B0FFG5B8LF
890,红双喜,山东省,临沂市,兰山区,红双喜毛毯,兰山区商城路88号附近,35.064718,118.326223,购物服务;家居建材市场;布艺市场,B0FFG199M5
891,红双喜,山东省,临沂市,兰山区,红双喜窗帘,兰山区华泉路122,35.286241,118.1849,购物服务;家居建材市场;布艺市场,B0FFH8T5NU
892,红双喜,山东省,临沂市,平邑县,红双喜(资邱店),平邑县文泗线南50米,35.431776,117.88363000000001,生活服务;生活服务场所;生活服务场所,B0FFFF9Q6B
893,红双喜,山东省,临沂市,兰山区,红双喜婚礼,兰山区小朱保村,35.149058000000004,118.17363600000002,生活服务;生活服务场所;生活服务场所,B0FFG7L011
894,红双喜,山东省,临沂市,河东区,红双喜家具,河东区342省道南50米,35.120061,118.613122,购物服务;家居建材市场;家具城,B0FFFZ8QFH
895,红双喜,山东省,临沂市,郯城县,红双喜婚庆(郯城红十字友爱医院东),郯城县人民路79号附近,34.614149,118.36391599999999,生活服务;生活服务场所;生活服务场所,B0FFFS8D2P
896,红双喜,山东省,临沂市,沂水县,红双喜窗帘(棉布店),沂水县兖石路50号附近,35.836985,118.43515500000001,购物服务;家居建材市场;布艺市场,B0FFFWQ0IG
897,红双喜,山东省,临沂市,兰山区,红双喜家具城,兰山区[],35.136540000000004,118.13396499999999,购物服务;家居建材市场;家具城,B0FFFW28B6
898,红双喜,山东省,临沂市,费县,红双喜家纺(费县新庄镇供销合作社西南),费县234省道东50米,35.091834000000006,117.871448,购物服务;家居建材市场;布艺市场,B0FFFWOPAO
899,红双喜,山东省,临沂市,沂水县,红双喜家具城,沂水县马站镇杨城红绿灯东100米路北,36.052734,118.753257,购物服务;家居建材市场;家具城,B021B0ANSB
900,红双喜,山东省,临沂市,兰陵县,红双喜棉花房,兰陵县惠民路与顺和路交叉口西50米,34.844477000000005,118.055099,生活服务;生活服务场所;生活服务场所,B0FFGME469
901,红双喜,山东省,临沂市,兰陵县,红双喜棉花房,兰陵县顺和路北50米,34.844521,118.057971,购物服务;专卖店;专营店,B0FFFWPWX7
902,红双喜,山东省,临沂市,郯城县,红双喜家具城,郯城县马涝线西50米,34.594046,118.21623999999998,购物服务;家居建材市场;家具城,B021B0AMRS
903,红双喜,山东省,临沂市,河东区,红双喜被业,河东区葛岸线北50米,35.350445,118.500701,购物服务;家居建材市场;布艺市场,B0FFFWXURE
904,红双喜,山东省,临沂市,莒南县,红双喜家具城,莒南县文疃镇中心小学东,35.336239,119.04444,购物服务;家居建材市场;家具城,B0FFFEAPYG
905,红双喜,山东省,临沂市,费县,红双喜窗帘布艺,费县费城街道南外环,35.254807,117.99080900000001,购物服务;家居建材市场;布艺市场,B0FFH6ST8W
906,红双喜,山东省,临沂市,平邑县,红双喜棉布房,平邑县文泗线附近,35.430299,117.89116499999999,购物服务;家居建材市场;布艺市场,B0FFG0ZJ6Y
907,红双喜,山东省,临沂市,兰山区,红双喜家具城(半程分店),兰山区半程镇临商银行南行300米路西,35.230221,118.30581699999999,购物服务;家居建材市场;家具城,B0FFFGRQYG
908,红双喜,江苏省,扬州市,邗江区,红双喜专卖,邗江区邗江中路332号润扬交通大厦1层,32.375955,119.399483,购物服务;购物相关场所;购物相关场所,B0FFGZW8WH
909,红双喜,江苏省,扬州市,高邮市,红双喜窗帘,高邮市中市河路与305县道交叉口东150米,32.77673,119.519325,购物服务;家居建材市场;布艺市场,B020202509
910,红双喜,江苏省,扬州市,高邮市,高邮市红双喜蛋品厂,高邮市盂陵南路29号附近,33.00575,119.42366799999999,购物服务;综合市场;农副产品市场,B0FFIU74HY
911,红双喜,江苏省,扬州市,宝应县,红双喜婚庆,宝应县国泰路38号,33.2487,119.33183000000001,生活服务;生活服务场所;生活服务场所,B020216XMA
912,红双喜,江苏省,扬州市,高邮市,红双喜花园,高邮市花湾路42号附近,32.785109999999996,119.45213799999999,商务住宅;住宅区;住宅区,B0FFGZAXPG
913,红双喜,江苏省,扬州市,宝应县,红双喜婚车租赁,宝应县白田北路106附近,33.259535,119.328356,汽车服务;汽车租赁;汽车租赁,B0FFFSSQVG
914,红双喜,江苏省,扬州市,邗江区,扬州红双喜橡塑制品有限公司,邗江区姚湾村杨天路附近,32.451433,119.38300100000001,公司企业;公司;公司,B0FFHJDBZB
915,红双喜,陕西省,延安市,子长县,红双喜婚庆,子长县瓦窑堡镇安定东路建材市场,37.145267,109.68530200000001,生活服务;生活服务场所;生活服务场所,B0FFFTJF1B
916,红双喜,陕西省,延安市,子长县,红双喜婚庆,子长县瓦窑堡镇安定东路建材市场,37.145267,109.68530200000001,生活服务;生活服务场所;生活服务场所,B0FFFTJF1B
917,红双喜,广东省,汕头市,龙湖区,红双喜川菜城,龙湖区安和街佳和十二巷9号,23.385428,116.74428,餐饮服务;中餐厅;四川菜(川菜),B0FFGXCG85
918,红双喜,广东省,汕头市,金平区,四川红双喜烤活鱼,金平区龙眼南路69号102铺面,23.364273,116.71071599999999,餐饮服务;中餐厅;特色/地方风味餐厅|餐饮服务;中餐厅;四川菜(川菜),B0FFF52M9I
919,红双喜,广东省,汕头市,龙湖区,红双喜猪肚鸡鲜羊肉火锅,龙湖区光和街五巷24号(综合市场斜对面),23.382858,116.74013899999999,餐饮服务;餐饮相关场所;餐饮相关,B0FFI5C6GI
920,红双喜,广东省,汕头市,澄海区,红双喜店,澄海区汇景花园2期大门美宜佳益民路,23.469784,116.763687,购物服务;购物相关场所;购物相关场所,B0FFJ4EA0Q
921,红双喜,广东省,汕头市,澄海区,红双囍婚介,澄海区广益路和振兴路的交叉口附近,23.471294,116.767074,生活服务;中介机构;中介机构,B02F20O6XJ
922,红双喜,四川省,达州市,开江县,红双喜大酒店,开江县宝泉巷26,31.086161999999998,107.861327,餐饮服务;中餐厅;中餐厅,B03320P804
923,红双喜,四川省,达州市,渠县,红双喜茶楼,渠县营渠路与318国道交叉口东南100米,30.830856,106.96839299999999,餐饮服务;茶艺馆;茶艺馆,B0FFFRL6BQ
924,红双喜,四川省,达州市,通川区,红双喜茶庄,通川区北岩寺路143号,31.22175,107.503127,餐饮服务;茶艺馆;茶艺馆,B0FFGMRZ10
925,红双喜,四川省,达州市,开江县,自由王城网咖,开江县红双喜对面,31.086434999999998,107.86140900000001,体育休闲服务;娱乐场所;网吧,B0FFHJ5LCB
926,红双喜,四川省,达州市,开江县,重庆洞子口老火锅(开江店),开江县宝泉巷红双喜酒店对面,31.086572999999998,107.86139399999999,餐饮服务;中餐厅;火锅店,B0FFGIOGK2
927,红双喜,四川省,达州市,开江县,名匠发艺沙龙,开江县宝泉巷26号(红双喜酒店),31.086307,107.86174299999999,生活服务;美容美发店;美容美发店,B0332003EE
928,红双喜,四川省,达州市,开江县,老菜馆,开江县清河路红双喜大酒店斜对面,31.086509000000003,107.862174,餐饮服务;中餐厅;四川菜(川菜),B0FFGZ4IES
929,红双喜,四川省,达州市,开江县,美美小龙虾,开江县银杏街31号(红双喜大酒店楼下),31.08646,107.86063500000002,餐饮服务;餐饮相关场所;餐饮相关,B0FFJ4WPAD
930,红双喜,四川省,达州市,开江县,发动奇绩,开江县新宁镇鸿鑫鼎盛B1门市7号红双喜大酒店旁边,31.086171000000004,107.86137,生活服务;美容美发店;美容美发店,B0FFGZ464W
931,红双喜,四川省,自贡市,自流井区,红双喜餐厅,自流井区珍珠山路38号附近,29.358484000000004,104.770415,餐饮服务;中餐厅;中餐厅,B0FFFWJA7I
932,红双喜,四川省,自贡市,富顺县,红双喜窗帘,富顺县富世镇釜江大道东段196号,29.179957,104.993826,购物服务;家居建材市场;布艺市场,B032D0MPVD
933,红双喜,四川省,自贡市,大安区,红双喜窗帘地砖墙衣,大安区大山铺街与燊海井路交叉口东150米,29.391054999999998,104.821651,购物服务;购物相关场所;购物相关场所,B0FFHA0IJL
934,红双喜,四川省,自贡市,荣县,老郎酒红双喜生态农庄,荣县长罗路,29.453118,104.119527,体育休闲服务;休闲场所;休闲场所,B0FFIVSCVN
935,红双喜,四川省,自贡市,自流井区,家常老菜馆,自流井区珍珠寺路48号,29.358511,104.770415,餐饮服务;中餐厅;中餐厅,B0FFGWWUW7
936,红双喜,四川省,遂宁市,安居区,红双喜家纺,安居区锦盛街55,30.347324,105.461529,购物服务;家居建材市场;布艺市场,B0FFG1ZAEQ
937,红双喜,四川省,遂宁市,射洪县,红双囍家具,射洪县永兴街与金蓬路交叉口西北150米,30.925357,105.631758,购物服务;家居建材市场;家具城,B0FFFZCKZZ
938,红双喜,甘肃省,金昌市,永昌县,红双喜商行(中国运政西北),永昌县312国道周振诊所斜对面(永昌县第四中学东南),38.244065,101.962138,购物服务;便民商店/便利店;便民商店/便利店,B0FFG79H8L
939,红双喜,甘肃省,金昌市,金川区,红双喜窗帘城,金川区公园路67-1号,38.509361,102.17890899999999,购物服务;家居建材市场;布艺市场,B03A70018E
940,红双喜,甘肃省,金昌市,金川区,福彩游艺城,金川区新华路街道金三角移动公司旁红双喜窗帘店三楼,38.522046,102.182446,体育休闲服务;娱乐场所;娱乐场所,B0FFIWJY1I
941,红双喜,甘肃省,金昌市,金川区,摩尔登整体家居软装馆(金昌店),金川区公园路67-1号附近,38.50934,102.178853,购物服务;家居建材市场;家居建材市场,B0FFI2060K
942,红双喜,河南省,鹤壁市,淇滨区,红双喜婚庆用品店,淇滨区四季青农产品批发市场,35.749155,114.272506,购物服务;专卖店;专营店,B0FFGZ5XF7
943,红双喜,河南省,鹤壁市,淇滨区,鹤壁红双囍祥和厨具,淇滨区金山路252号,35.755328999999996,114.27802199999999,购物服务;购物相关场所;购物相关场所,B0FFFV2JZU
944,红双喜,河南省,鹤壁市,淇滨区,慧发干菜粮油批零部,淇滨区新区贸易二区4号楼金山路红双喜里面,35.755221999999996,114.27837,购物服务;综合市场;农副产品市场,B0FFGK4AJZ
945,红双喜,河南省,鹤壁市,浚县,红双囍家居,浚县王庄镇人民1号,35.772714,114.58738600000001,购物服务;家居建材市场;家具城,B0FFG3DJ8W
946,红双喜,广西壮族自治区,来宾市,兴宾区,红双喜窗帘,兴宾区维林大道282号,23.739746,109.227005,购物服务;家居建材市场;布艺市场,B0FFGB6OFX
947,红双喜,广西壮族自治区,来宾市,兴宾区,红双喜窗帘,兴宾区维林大道282号,23.739746,109.227005,购物服务;家居建材市场;布艺市场,B0FFGB6OFX
948,红双喜,河南省,洛阳市,宜阳县,红双喜酒店,宜阳县铁三线南50米,34.667303000000004,112.009477,餐饮服务;中餐厅;中餐厅,B0FFIU03BH
949,红双喜,河南省,洛阳市,嵩县,红双喜婚庆(嵩州路),嵩县嵩州路321-副11号,34.134331,112.08741699999999,生活服务;生活服务场所;生活服务场所,B0FFG37Y91
950,红双喜,河南省,洛阳市,宜阳县,红双喜大酒店,宜阳县李贺大道寻村镇官庄小学对面,34.538728000000006,112.195274,住宿服务;宾馆酒店;宾馆酒店,B0FFHU50F2
951,红双喜,河南省,洛阳市,汝阳县,红双喜家具城,汝阳县内埠镇人民西路31号,34.301312,112.52756200000002,购物服务;家居建材市场;家具城,B0FFG8RRQI
952,红双喜,河南省,洛阳市,西工区,红双喜弹花网套店,西工区谷党路与310国道交叉口南200米附近,34.690183000000005,112.342279,生活服务;生活服务场所;生活服务场所,B0FFI31CT1
953,红双喜,河南省,洛阳市,嵩县,红双喜床上用品,嵩县247省道东50米,34.228618,112.203562,购物服务;家居建材市场;布艺市场,B0FFG56GJP
954,红双喜,河南省,洛阳市,偃师市,红双喜庆典演艺,偃师市行政路路东,34.673265,112.686751,生活服务;生活服务场所;生活服务场所,B0FFG7KGTU
955,红双喜,河南省,洛阳市,老城区,红双喜体育用品(新街),老城区新街301号,34.681765999999996,112.488478,购物服务;体育用品店;体育用品店,B017B0Q8EX
956,红双喜,河南省,洛阳市,老城区,红双喜家常菜馆,老城区春都路春都路副食品市场向东50米路南,34.689493,112.457692,餐饮服务;中餐厅;中餐厅,B0FFF9L8B0
957,红双喜,河南省,洛阳市,偃师市,红双喜弹花包被,偃师市310国道南50米,34.667798,112.81303700000001,生活服务;生活服务场所;生活服务场所,B0FFIOB7IK
958,红双喜,河南省,洛阳市,汝阳县,蔡店红双喜家私,汝阳县汝白路东50米,34.301277,112.435097,购物服务;购物相关场所;购物相关场所,B0FFJ4JVRH
959,红双喜,河南省,洛阳市,西工区,红双囍酒店,西工区春都路与定鼎路交叉口东100米路北(道北路小学旁),34.689495,112.455297,住宿服务;宾馆酒店;宾馆酒店,B0FFFSYJ6Q
960,红双喜,河南省,洛阳市,伊川县,洛阳大唐牡丹园,伊川县伊河东岸红双喜大酒店北100米,34.527574,112.486427,风景名胜;风景名胜相关;旅游景点,B0FFFW23SM
961,红双喜,河南省,洛阳市,老城区,砂锅焱烩面,"老城区新街408号(新街清真寺南边第一家,红双喜体育正对面)",34.681991,112.48801999999999,餐饮服务;中餐厅;清真菜馆,B0FFGXGXZ5
962,红双喜,河南省,洛阳市,伊川县,红双囍大酒店,伊川县常付线洛阳大唐牡丹园旁,34.526813,112.485818,餐饮服务;中餐厅;中餐厅,B0FFFCLVMG
963,红双喜,江苏省,镇江市,京口区,红双喜,京口区健康路1-2号,32.19963,119.45227,购物服务;购物相关场所;购物相关场所,B0FFHU4C5S
964,红双喜,江苏省,镇江市,润州区,红双喜中介,润州区中山路99号,32.200731,119.430898,生活服务;中介机构;中介机构,B0FFFSXW8W
965,红双喜,江苏省,镇江市,京口区,红双喜床上用品店,京口区赵声路28号港成新都会F1,32.18434,119.669762,购物服务;家居建材市场;布艺市场,B0FFF2F6U7
966,红双喜,江苏省,镇江市,京口区,红双喜酒楼(永安路店),京口区永安路15号3层,32.201528,119.45639399999999,餐饮服务;中餐厅;综合酒楼,B01FF00VO1
967,红双喜,江苏省,镇江市,扬中市,扬中红双喜搬家清洗服务中心,扬中市金苇中路158号,32.234063,119.81209399999999,生活服务;生活服务场所;生活服务场所,B0FFGA5WZH
968,红双喜,江苏省,镇江市,京口区,一路阳光茶楼,京口区永安路15号(红双喜酒楼2楼),32.201623,119.45610500000001,餐饮服务;茶艺馆;茶艺馆,B0FFG4DLGI
969,红双喜,广西壮族自治区,崇左市,龙州县,红双喜铝大门(龙州总代理),龙州县城北路57-2号附近,22.350008,106.85596299999999,购物服务;家居建材市场;建材五金市场,B0FFFW8YII
970,红双喜,广西壮族自治区,崇左市,龙州县,红双喜铝大门(龙州总代理),龙州县城北路57-2号附近,22.350008,106.85596299999999,购物服务;家居建材市场;建材五金市场,B0FFFW8YII
971,红双喜,吉林省,长春市,南关区,红双喜,南关区东方广场街道办事处(长春经济技术开发区)(国家级)彩虹广场欧亚万豪4楼,43.878964,125.42321799999999,购物服务;体育用品店;体育用品店,B0FFFFFALE
972,红双喜,吉林省,长春市,绿园区,红双喜,绿园区春城大街1077号欧亚春城店4层,43.892972,125.26123,购物服务;体育用品店;体育用品店,B0FFH42YJU
973,红双喜,吉林省,长春市,宽城区,红双喜(长春强劲店),宽城区太平街338号,43.90273,125.34268999999999,购物服务;体育用品店;体育用品店,B01AF0Z4YN
974,红双喜,吉林省,长春市,二道区,红双喜(中东大市场北区),二道区自由大路6738号中东大市场北区F1层,43.864014000000005,125.39048400000001,购物服务;体育用品店;体育用品店,B0FFH5HVXZ
975,红双喜,吉林省,长春市,南关区,红双喜体育(大经路),南关区大经路1022,43.889068,125.33705900000001,购物服务;体育用品店;体育用品店,B01AF09DLL
976,红双喜,吉林省,长春市,双阳区,红双喜体育用品(嵩山路),双阳区嵩山路688号附近,43.526298,125.66001299999999,购物服务;体育用品店;体育用品店,B01AF0ZZPE
977,红双喜,吉林省,长春市,南关区,红双喜体育用品总汇,南关区自由大路35号长春体育场,43.866849,125.344631,购物服务;体育用品店;体育用品店,B0FFG7H4GX
978,红双喜,吉林省,长春市,绿园区,红双喜体育用品总汇(东风大街),绿园区汽车产业开发区东风大街与昆仑二路交汇1215号,43.86327,125.258801,购物服务;体育用品店;体育用品店,B0FFHVWAMF
979,红双喜,吉林省,长春市,九台区,红双喜乐器文体用品中心,九台区曙光大街557号附近,44.156215,125.840492,购物服务;体育用品店;体育用品店,B01AF08JH0
980,红双喜,广东省,梅州市,梅江区,红双喜汽车租赁,梅江区富奇路309号嘉信大酒店旁,24.274994,116.115408,汽车服务;汽车租赁;汽车租赁还车,B0FFG236VS
981,红双喜,广东省,梅州市,五华县,红双喜太阳能热水器,五华县华新街与239省道交叉口西南150米,24.056642999999998,115.618401,购物服务;家居建材市场;厨卫市场,B0FFG6262Y
982,红双喜,江西省,抚州市,宜黄县,红双喜牛杂店,宜黄县龙凤路与208省道交叉口西南50米,27.551057,116.222877,餐饮服务;中餐厅;中餐厅,B0FFFZLNQT
983,红双喜,江西省,抚州市,宜黄县,红白双喜店,宜黄县学前路与文中路交叉口西北50米,27.542243,116.220197,生活服务;丧葬设施;丧葬设施,B0FFG9IDJF
984,红双喜,香港特别行政区,香港特别行政区,中西区,红双喜(金融街),中西区中环士丹顿街48号地下,22.279914,114.15697,生活服务;生活服务场所;生活服务场所,B073C0RKW6
985,红双喜,香港特别行政区,香港特别行政区,中西区,红双喜(金融街),中西区中环士丹顿街48号地下,22.279914,114.15697,生活服务;生活服务场所;生活服务场所,B073C0RKW6
986,红双喜,福建省,厦门市,集美区,红双喜铺,集美区孙坂南路790号附近,24.616382,118.08395300000001,购物服务;专卖店;专营店,B0FFI1UANC
987,红双喜,福建省,厦门市,思明区,红双喜鲜花店,思明区溪岸路103号,24.461407,118.09131699999999,购物服务;购物相关场所;购物相关场所,B0FFI66G7H
988,红双喜,福建省,厦门市,同安区,红双喜体育用品,同安区育新路人寿大厦旁,24.729932,118.144098,购物服务;专卖店;专营店,B0FFGAL6V6
989,红双喜,云南省,保山市,施甸县,海尔红双,施甸县朝阳路与甸阳路交叉口南50米,24.727192000000002,99.183065,购物服务;购物相关场所;购物相关场所,B0FFIKORHR
990,红双喜,云南省,保山市,施甸县,海尔红双,施甸县朝阳路与甸阳路交叉口南50米,24.727192000000002,99.183065,购物服务;购物相关场所;购物相关场所,B0FFIKORHR
991,红双喜,内蒙古自治区,呼伦贝尔市,扎赉诺尔区,红双喜游艺厅,扎赉诺尔区天鹅路玉龙小区六号楼,49.466807,117.699699,体育休闲服务;娱乐场所;游戏厅,B01D60N3O3
992,红双喜,内蒙古自治区,呼伦贝尔市,扎赉诺尔区,红双喜棋牌室,扎赉诺尔区中央街与天鹅路交叉口东北150米,49.466648,117.699623,体育休闲服务;娱乐场所;棋牌室,B0FFH9PSEB
993,红双喜,内蒙古自治区,呼伦贝尔市,满洲里市,红双喜家常菜馆,满洲里市五道街恒泰综合楼1层,49.590365000000006,117.466582,餐饮服务;中餐厅;中餐厅,B0FFFZN8L5
994,红双喜,内蒙古自治区,呼伦贝尔市,扎兰屯市,中国福利彩票,扎兰屯市一文成街与胜利路交叉口西南50米,48.011753999999996,122.73970200000001,生活服务;彩票彩券销售点;彩票彩券销售点,B01D600OFX
995,红双喜,安徽省,蚌埠市,固镇县,绣阳家纺(濠城店),固镇县濠城镇霸王街,33.31772,117.55596200000001,购物服务;家居建材市场;布艺市场,B0FFG12SW7
996,红双喜,安徽省,蚌埠市,固镇县,绣阳家纺(濠城店),固镇县濠城镇霸王街,33.31772,117.55596200000001,购物服务;家居建材市场;布艺市场,B0FFG12SW7
997,红双喜,宁夏回族自治区,石嘴山市,惠农区,红双喜网套加工,惠农区春晖市场,39.227998,106.77672,购物服务;家居建材市场;布艺市场,B0FFGCNQYT
998,红双喜,宁夏回族自治区,石嘴山市,惠农区,红双喜网套加工,惠农区春晖市场,39.227998,106.77672,购物服务;家居建材市场;布艺市场,B0FFGCNQYT
999,红双喜,浙江省,衢州市,柯城区,红双喜,柯城区五圣街81-83号(孔阙堂正对面),28.9566,118.86681100000001,餐饮服务;中餐厅;中餐厅,B0FFIZ9LP8
1000,红双喜,浙江省,衢州市,柯城区,红双喜,柯城区五圣街81-83号(孔阙堂正对面),28.9566,118.86681100000001,餐饮服务;中餐厅;中餐厅,B0FFIZ9LP8
1001,红双喜,山西省,运城市,垣曲县,红双喜文体总汇,垣曲县人民路26号,35.297051,111.670745,购物服务;体育用品店;体育用品店,B0FFF3XZPO
1002,红双喜,山西省,运城市,稷山县,红双喜体育用品,稷山县稷峰镇育英街高中往西100米路南,35.607286,110.9782,购物服务;体育用品店;体育用品店,B01670MAVP
1003,红双喜,山西省,运城市,万荣县,红双囍婚嫁商城,万荣县008乡道与237省道交叉口东南150米,35.43594,110.647095,购物服务;商场;商场,B0FFFUXFBG
1004,红双喜,河北省,廊坊市,霸州市,红双喜超市(北环路),霸州市金堂道与112国道交叉口西50米,39.142469,116.72738999999999,购物服务;便民商店/便利店;便民商店/便利店,B0FFG79NXQ
1005,红双喜,河北省,廊坊市,永清县,红双喜鲜花批发,永清县益昌南路91号附近,39.31136,116.497447,购物服务;专卖店;专营店,B013C01J92
1006,红双喜,河北省,廊坊市,霸州市,红双喜厨具批发,霸州市兴华中路1656号,39.126956,116.40231599999998,购物服务;家居建材市场;厨卫市场,B013C0HYKO
1007,红双喜,河北省,廊坊市,文安县,红双喜整体橱柜,文安县保静线北50米,38.88361,116.377082,购物服务;家居建材市场;厨卫市场,B0FFJ10SDG
1008,红双喜,河北省,廊坊市,永清县,红双喜婚庆礼仪公司(益昌中路),永清县益昌南路111附近,39.311378000000005,116.497449,生活服务;生活服务场所;生活服务场所,B013C01J91
1009,红双喜,河北省,廊坊市,三河市,红双囍窗帘城,三河市迎宾南路119号,39.979915000000005,117.07601000000001,购物服务;家居建材市场;布艺市场,B0FFFP73Y4
1010,红双喜,江西省,吉安市,峡江县,红双喜家具,峡江县玉峡大道与群玉路交叉口北150米,27.590037,115.322976,购物服务;家居建材市场;家具城,B0FFG6KE65
