,brand,province,city,area,name,address,lat,lng,Type,id
0,La Chapelle|拉夏贝尔,山西省,朔州市,朔城区,拉夏贝尔(百福时尚国际购物中心),朔城区北关路金龙商业街A1号百福时尚国际购物中心F4层,39.325253,112.427544,购物服务;服装鞋帽皮具店;品牌服装店,B0FFFOUDX5
1,La Chapelle|拉夏贝尔,山西省,朔州市,朔城区,Candies(美都汇购物广场),朔城区民福街与开发路交汇处美都汇购物广场F3层,39.341134,112.439241,购物服务;服装鞋帽皮具店;品牌服装店,B0FFHPWT8G
2,La Chapelle|拉夏贝尔,山西省,朔州市,朔城区,拉夏贝尔(百福时尚国际购物中心),朔城区北关路金龙商业街A1号百福时尚国际购物中心F4层,39.325253,112.427544,购物服务;服装鞋帽皮具店;品牌服装店,B0FFFOUDX5
3,La Chapelle|拉夏贝尔,山西省,朔州市,朔城区,Candies(美都汇购物广场),朔城区民福街与开发路交汇处美都汇购物广场F3层,39.341134,112.439241,购物服务;服装鞋帽皮具店;品牌服装店,B0FFHPWT8G
4,La Chapelle|拉夏贝尔,新疆维吾尔自治区,石河子市,石河子市,拉夏贝儿PUELLA,石河子市时代购物三楼,44.309948,86.038818,购物服务;购物相关场所;购物相关场所,B0FFIDTFI7
5,La Chapelle|拉夏贝尔,新疆维吾尔自治区,石河子市,石河子市,拉夏贝儿PUELLA,石河子市时代购物三楼,44.309948,86.038818,购物服务;购物相关场所;购物相关场所,B0FFIDTFI7
6,La Chapelle|拉夏贝尔,湖北省,十堰市,张湾区,LaChapelle拉夏贝尔(中商百货三店),张湾区公园路81号中商百货(十堰店)3层,32.651511,110.769794,购物服务;服装鞋帽皮具店;品牌服装店,B0FFFDQ8E2
7,La Chapelle|拉夏贝尔,湖北省,十堰市,丹江口市,拉夏贝尔直营店,丹江口市人民购物广场一号门,32.540436,111.512494,购物服务;购物相关场所;购物相关场所,B0FFHI2C0I
8,La Chapelle|拉夏贝尔,湖北省,十堰市,茅箭区,LaBabite(十堰万达广场集合店),茅箭区北京北路万达广场1BF2拉夏贝尔集合店,32.663094,110.807068,购物服务;购物相关场所;购物相关场所,B0FFHS9XBU
9,La Chapelle|拉夏贝尔,湖北省,十堰市,茅箭区,Candie’s,茅箭区人民北路1号武商集团十堰人民商场3层,32.652160,110.786026,购物服务;服装鞋帽皮具店;品牌服装店,B0FFFDV2PJ
10,La Chapelle|拉夏贝尔,湖北省,十堰市,张湾区,LaChapelle拉夏贝尔(中商百货三店),张湾区公园路81号中商百货(十堰店)3层,32.651511,110.769794,购物服务;服装鞋帽皮具店;品牌服装店,B0FFFDQ8E2
11,La Chapelle|拉夏贝尔,湖北省,十堰市,丹江口市,拉夏贝尔直营店,丹江口市人民购物广场一号门,32.540436,111.512494,购物服务;购物相关场所;购物相关场所,B0FFHI2C0I
12,La Chapelle|拉夏贝尔,湖北省,十堰市,茅箭区,LaBabite(十堰万达广场集合店),茅箭区北京北路万达广场1BF2拉夏贝尔集合店,32.663094,110.807068,购物服务;购物相关场所;购物相关场所,B0FFHS9XBU
13,La Chapelle|拉夏贝尔,湖北省,十堰市,茅箭区,Candie’s,茅箭区人民北路1号武商集团十堰人民商场3层,32.652160,110.786026,购物服务;服装鞋帽皮具店;品牌服装店,B0FFFDV2PJ
14,La Chapelle|拉夏贝尔,吉林省,四平市,铁东区,LaChapelle(四平万达广场集合店),铁东区万达广场一楼,43.155647,124.391495,购物服务;服装鞋帽皮具店;品牌服装店,B0FFIDZ4VT
15,La Chapelle|拉夏贝尔,吉林省,四平市,铁西区,拉夏贝,铁西区仁兴街道华展仁兴商厦三楼,43.170936,124.372243,购物服务;购物相关场所;购物相关场所,B0FFHETA6I
16,La Chapelle|拉夏贝尔,吉林省,四平市,铁西区,Candie's(四平金座购物中心店),铁西区南仁兴街3号金座购物中心3F,43.173839,124.371925,购物服务;购物相关场所;购物相关场所,B0FFHSLE6A
17,La Chapelle|拉夏贝尔,吉林省,四平市,铁东区,LaChapelle(四平万达广场集合店),铁东区万达广场一楼,43.155647,124.391495,购物服务;服装鞋帽皮具店;品牌服装店,B0FFIDZ4VT
18,La Chapelle|拉夏贝尔,吉林省,四平市,铁西区,拉夏贝,铁西区仁兴街道华展仁兴商厦三楼,43.170936,124.372243,购物服务;购物相关场所;购物相关场所,B0FFHETA6I
19,La Chapelle|拉夏贝尔,吉林省,四平市,铁西区,Candie's(四平金座购物中心店),铁西区南仁兴街3号金座购物中心3F,43.173839,124.371925,购物服务;购物相关场所;购物相关场所,B0FFHSLE6A
20,La Chapelle|拉夏贝尔,甘肃省,庆阳市,西峰区,拉夏贝尔VOUGEEK男装专柜,西峰区南大街昊鑫时代(千旺百货)二楼,35.730156,107.644057,购物服务;购物相关场所;购物相关场所,B0FFHSG7AO
21,La Chapelle|拉夏贝尔,甘肃省,庆阳市,西峰区,拉夏贝尔VOUGEEK男装专柜,西峰区南大街昊鑫时代(千旺百货)二楼,35.730156,107.644057,购物服务;购物相关场所;购物相关场所,B0FFHSG7AO
22,La Chapelle|拉夏贝尔,辽宁省,丹东市,东港市,拉夏贝尔专柜,东港市大东街道迎宾大街一号千盛百货二楼,39.889808,124.146467,购物服务;购物相关场所;购物相关场所,B0FFHGY1UC
23,La Chapelle|拉夏贝尔,辽宁省,丹东市,振兴区,La Chapelle,振兴区七经街8号新一百F4,40.127011,124.388614,购物服务;服装鞋帽皮具店;品牌服装店,B0FFH1EO1A
24,La Chapelle|拉夏贝尔,辽宁省,丹东市,振兴区,UlifeStyle(丹东万达广场店),振兴区锦山大街298号人民街万达广场1F拉夏贝尔娱乐楼Z-1F-AA,40.110741,124.366289,购物服务;购物相关场所;购物相关场所,B0FFHSA0CT
25,La Chapelle|拉夏贝尔,辽宁省,丹东市,东港市,拉夏贝尔专柜,东港市大东街道迎宾大街一号千盛百货二楼,39.889808,124.146467,购物服务;购物相关场所;购物相关场所,B0FFHGY1UC
26,La Chapelle|拉夏贝尔,辽宁省,丹东市,振兴区,La Chapelle,振兴区七经街8号新一百F4,40.127011,124.388614,购物服务;服装鞋帽皮具店;品牌服装店,B0FFH1EO1A
27,La Chapelle|拉夏贝尔,辽宁省,丹东市,振兴区,UlifeStyle(丹东万达广场店),振兴区锦山大街298号人民街万达广场1F拉夏贝尔娱乐楼Z-1F-AA,40.110741,124.366289,购物服务;购物相关场所;购物相关场所,B0FFHSA0CT
28,La Chapelle|拉夏贝尔,湖北省,孝感市,安陆市,贝尔,安陆市府城街道德安路广场北街23一4,31.257405,113.688879,购物服务;服装鞋帽皮具店;服装鞋帽皮具店,B0FFGB407P
29,La Chapelle|拉夏贝尔,湖北省,孝感市,安陆市,拉夏贝尔(西亚丽宝广场),安陆市紫金路与德安北路交叉口西西亚丽宝广场F2层,31.261346,113.686161,购物服务;服装鞋帽皮具店;品牌服装店,B0FFG9AH7H
30,La Chapelle|拉夏贝尔,湖北省,孝感市,安陆市,拉夏(西亚丽宝广场),安陆市紫金路与德安北路交叉口西西亚丽宝广场F2层,31.261359,113.686065,购物服务;购物相关场所;购物相关场所,B0FFHW82R8
31,La Chapelle|拉夏贝尔,湖北省,孝感市,孝昌县,拉夏贝尔专柜,孝昌县花园镇建设路特1号孝武购物中心二楼,31.255035,113.992088,购物服务;购物相关场所;购物相关场所,B0FFIJUVOW
32,La Chapelle|拉夏贝尔,湖北省,孝感市,安陆市,拉夏贝尔厅,安陆市恒泰购物广场二楼,31.256489,113.689484,购物服务;购物相关场所;购物相关场所,B0FFIOT4BK
33,La Chapelle|拉夏贝尔,湖北省,孝感市,孝南区,La Chapelle(中商百货店),孝南区文化路口中商百货三楼,30.926385,113.918440,购物服务;服装鞋帽皮具店;品牌服装店,B0FFGJSEV0
34,La Chapelle|拉夏贝尔,湖北省,孝感市,安陆市,贝尔,安陆市府城街道德安路广场北街23一4,31.257405,113.688879,购物服务;服装鞋帽皮具店;服装鞋帽皮具店,B0FFGB407P
35,La Chapelle|拉夏贝尔,湖北省,孝感市,安陆市,拉夏贝尔(西亚丽宝广场),安陆市紫金路与德安北路交叉口西西亚丽宝广场F2层,31.261346,113.686161,购物服务;服装鞋帽皮具店;品牌服装店,B0FFG9AH7H
36,La Chapelle|拉夏贝尔,湖北省,孝感市,安陆市,拉夏(西亚丽宝广场),安陆市紫金路与德安北路交叉口西西亚丽宝广场F2层,31.261359,113.686065,购物服务;购物相关场所;购物相关场所,B0FFHW82R8
37,La Chapelle|拉夏贝尔,湖北省,孝感市,孝昌县,拉夏贝尔专柜,孝昌县花园镇建设路特1号孝武购物中心二楼,31.255035,113.992088,购物服务;购物相关场所;购物相关场所,B0FFIJUVOW
38,La Chapelle|拉夏贝尔,湖北省,孝感市,安陆市,拉夏贝尔厅,安陆市恒泰购物广场二楼,31.256489,113.689484,购物服务;购物相关场所;购物相关场所,B0FFIOT4BK
39,La Chapelle|拉夏贝尔,湖北省,孝感市,孝南区,La Chapelle(中商百货店),孝南区文化路口中商百货三楼,30.926385,113.918440,购物服务;服装鞋帽皮具店;品牌服装店,B0FFGJSEV0
40,La Chapelle|拉夏贝尔,新疆维吾尔自治区,克拉玛依市,克拉玛依区,拉夏贝尔专柜,克拉玛依区汇嘉时代商场二楼,45.596870,84.855530,购物服务;购物相关场所;购物相关场所,B0FFIKNP0O
41,La Chapelle|拉夏贝尔,新疆维吾尔自治区,克拉玛依市,克拉玛依区,拉夏贝尔裁缝,克拉玛依区准噶尔路76号阳光时代购物广场二楼,45.601551,84.880013,购物服务;购物相关场所;购物相关场所,B0FFIXTCVF
42,La Chapelle|拉夏贝尔,新疆维吾尔自治区,克拉玛依市,克拉玛依区,拉夏贝尔专柜,克拉玛依区汇嘉时代商场二楼,45.596870,84.855530,购物服务;购物相关场所;购物相关场所,B0FFIKNP0O
43,La Chapelle|拉夏贝尔,新疆维吾尔自治区,克拉玛依市,克拉玛依区,拉夏贝尔裁缝,克拉玛依区准噶尔路76号阳光时代购物广场二楼,45.601551,84.880013,购物服务;购物相关场所;购物相关场所,B0FFIXTCVF
44,La Chapelle|拉夏贝尔,广东省,汕尾市,陆丰市,拉夏贝尔女装店,陆丰市建设路吉田商业城一楼,22.950195,115.636993,购物服务;购物相关场所;购物相关场所,B0FFINOWFI
45,La Chapelle|拉夏贝尔,广东省,汕尾市,城区,拉夏贝尔集合店女装,城区黄金海岸显达广场二楼,22.776091,115.378052,购物服务;购物相关场所;购物相关场所,B0FFIVVM8G
46,La Chapelle|拉夏贝尔,广东省,汕尾市,城区,Candie's(信利・城市广场),城区汕尾大道中段信利・城市广场F2层,22.773606,115.362667,购物服务;购物相关场所;购物相关场所,B0FFHWVKCI
47,La Chapelle|拉夏贝尔,广东省,汕尾市,陆丰市,拉夏贝尔女装店,陆丰市建设路吉田商业城一楼,22.950195,115.636993,购物服务;购物相关场所;购物相关场所,B0FFINOWFI
48,La Chapelle|拉夏贝尔,广东省,汕尾市,城区,拉夏贝尔集合店女装,城区黄金海岸显达广场二楼,22.776091,115.378052,购物服务;购物相关场所;购物相关场所,B0FFIVVM8G
49,La Chapelle|拉夏贝尔,广东省,汕尾市,城区,Candie's(信利・城市广场),城区汕尾大道中段信利・城市广场F2层,22.773606,115.362667,购物服务;购物相关场所;购物相关场所,B0FFHWVKCI
50,La Chapelle|拉夏贝尔,吉林省,白山市,浑江区,拉夏贝尔集合店,浑江区浑江大街168-2号银座购物中心4楼,41.939106,126.422561,购物服务;服装鞋帽皮具店;品牌服装店,B0FFHYFQNC
51,La Chapelle|拉夏贝尔,吉林省,白山市,抚松县,La Chapelle,抚松县白云路西100米,42.103149,127.512461,购物服务;服装鞋帽皮具店;品牌服装店,B0FFF07KLW
52,La Chapelle|拉夏贝尔,吉林省,白山市,浑江区,拉夏贝尔集合店,浑江区浑江大街168-2号银座购物中心4楼,41.939106,126.422561,购物服务;服装鞋帽皮具店;品牌服装店,B0FFHYFQNC
53,La Chapelle|拉夏贝尔,吉林省,白山市,抚松县,La Chapelle,抚松县白云路西100米,42.103149,127.512461,购物服务;服装鞋帽皮具店;品牌服装店,B0FFF07KLW
54,La Chapelle|拉夏贝尔,新疆维吾尔自治区,哈密市,伊州区,拉夏贝尔专柜,伊州区广场南路领先购物广场2楼,42.825009,93.519089,购物服务;个人用品/化妆品店;其它个人用品店,B0FFGCNOAP
55,La Chapelle|拉夏贝尔,新疆维吾尔自治区,哈密市,伊州区,拉夏贝尔专柜,伊州区广场南路领先购物广场2楼,42.825009,93.519089,购物服务;个人用品/化妆品店;其它个人用品店,B0FFGCNOAP
56,La Chapelle|拉夏贝尔,贵州省,黔东南苗族侗族自治州,凯里市,la chapelle sport(世纪城百货),凯里市文化北路22号世纪城百货F1层,26.586164,107.985184,购物服务;服装鞋帽皮具店;品牌服装店,B0FFHWW0JA
57,La Chapelle|拉夏贝尔,贵州省,黔东南苗族侗族自治州,凯里市,la chapelle sport(世纪城百货),凯里市文化北路22号世纪城百货F1层,26.586164,107.985184,购物服务;服装鞋帽皮具店;品牌服装店,B0FFHWW0JA
58,La Chapelle|拉夏贝尔,新疆维吾尔自治区,吐鲁番市,鄯善县,拉夏贝尔专柜,鄯善县老城路滨沙购物广场二楼,42.877647,90.214958,购物服务;购物相关场所;购物相关场所,B0FFIMCG4V
59,La Chapelle|拉夏贝尔,新疆维吾尔自治区,吐鲁番市,鄯善县,拉夏贝尔专柜,鄯善县老城路滨沙购物广场二楼,42.877647,90.214958,购物服务;购物相关场所;购物相关场所,B0FFIMCG4V
60,La Chapelle|拉夏贝尔,广西壮族自治区,防城港市,防城区,La Chapelle(仟仟万家购物中心),防城区防东路87号仟仟万家购物中心6层,21.763100,108.351617,购物服务;服装鞋帽皮具店;品牌服装店,B0FFG2DFM0
61,La Chapelle|拉夏贝尔,广西壮族自治区,防城港市,防城区,La Chapelle(仟仟万家购物中心),防城区防东路87号仟仟万家购物中心6层,21.763100,108.351617,购物服务;服装鞋帽皮具店;品牌服装店,B0FFG2DFM0
62,La Chapelle|拉夏贝尔,云南省,红河哈尼族彝族自治州,蒙自市,拉夏贝尔专柜,蒙自市文澜镇朝阳路2号金鹏世纪广场一楼,23.354464,103.392550,购物服务;购物相关场所;购物相关场所,B0FFGBL2RH
63,La Chapelle|拉夏贝尔,云南省,红河哈尼族彝族自治州,个旧市,拉夏贝尔集合店,个旧市城区街道中山路9号丽水金湾购物中心,23.363296,103.156229,购物服务;服装鞋帽皮具店;品牌服装店,B0FFH39EAG
64,La Chapelle|拉夏贝尔,云南省,红河哈尼族彝族自治州,建水县,LaChapelle,建水县临安镇永祯路1号时代中心2楼,23.618296,102.822441,购物服务;服装鞋帽皮具店;品牌服装店,B0FFGBMFUV
65,La Chapelle|拉夏贝尔,云南省,红河哈尼族彝族自治州,蒙自市,拉夏贝尔专柜,蒙自市文澜镇朝阳路2号金鹏世纪广场一楼,23.354464,103.392550,购物服务;购物相关场所;购物相关场所,B0FFGBL2RH
66,La Chapelle|拉夏贝尔,云南省,红河哈尼族彝族自治州,个旧市,拉夏贝尔集合店,个旧市城区街道中山路9号丽水金湾购物中心,23.363296,103.156229,购物服务;服装鞋帽皮具店;品牌服装店,B0FFH39EAG
67,La Chapelle|拉夏贝尔,云南省,红河哈尼族彝族自治州,建水县,LaChapelle,建水县临安镇永祯路1号时代中心2楼,23.618296,102.822441,购物服务;服装鞋帽皮具店;品牌服装店,B0FFGBMFUV
68,La Chapelle|拉夏贝尔,安徽省,亳州市,谯城区,La Chapelle(亳州万达广场),谯城区希夷大道与杜仲路交叉口亳州万达广场F1层,33.829688,115.779668,购物服务;服装鞋帽皮具店;品牌服装店,B0FFHH2VXS
69,La Chapelle|拉夏贝尔,安徽省,亳州市,谯城区,La Chapelle,谯城区光明西路金瑞银泰购物广场2层,33.856066,115.784216,购物服务;服装鞋帽皮具店;品牌服装店,B0FFG28GMD
70,La Chapelle|拉夏贝尔,安徽省,亳州市,谯城区,La Chapelle(亳州万达广场),谯城区希夷大道与杜仲路交叉口亳州万达广场F1层,33.829688,115.779668,购物服务;服装鞋帽皮具店;品牌服装店,B0FFHH2VXS
71,La Chapelle|拉夏贝尔,安徽省,亳州市,谯城区,La Chapelle,谯城区光明西路金瑞银泰购物广场2层,33.856066,115.784216,购物服务;服装鞋帽皮具店;品牌服装店,B0FFG28GMD
72,La Chapelle|拉夏贝尔,河北省,石家庄市,桥西区,拉夏贝尔(益友购物中心),桥西区裕华西路128号益友购物中心4F层,38.034022,114.450683,购物服务;服装鞋帽皮具店;品牌服装店,B0FFH9V13F
73,La Chapelle|拉夏贝尔,河北省,石家庄市,辛集市,拉夏贝尔(北国商城),辛集市兴华北路76号北国商城4F层,37.928515,115.215210,购物服务;服装鞋帽皮具店;品牌服装店,B0FFGC6QIV
74,La Chapelle|拉夏贝尔,河北省,石家庄市,桥西区,La Chapelle(汇丰路西美花街一店),桥西区红旗南大街与汇丰路交汇处西南角西美花街生活工场1层,37.993595,114.460268,购物服务;服装鞋帽皮具店;服装鞋帽皮具店,B0FFFXFYWW
75,La Chapelle|拉夏贝尔,河北省,石家庄市,裕华区,拉夏贝尔专柜,裕华区怀特国际商城(育才街)二楼男装,38.023079,114.529976,购物服务;购物相关场所;购物相关场所,B0FFJ08851
76,La Chapelle|拉夏贝尔,河北省,石家庄市,裕华区,拉夏贝尔专柜,裕华区槐安路万达百货四楼,38.023903,114.545509,购物服务;购物相关场所;购物相关场所,B0FFIPJ331
77,La Chapelle|拉夏贝尔,河北省,石家庄市,辛集市,拉夏贝尔专柜,辛集市辛集镇兴华路376号鹿城商业广场1楼,37.940937,115.215195,购物服务;购物相关场所;购物相关场所,B0FFJ2D15P
78,La Chapelle|拉夏贝尔,河北省,石家庄市,新华区,拉夏贝尔集合店(银座商城),新华区中山西路83号银座商城F4层,38.044225,114.485816,购物服务;服装鞋帽皮具店;品牌服装店,B0FFFZG8ET
79,La Chapelle|拉夏贝尔,河北省,石家庄市,桥西区,LA CHAPELLE,桥西区中山西路139号新百广场5层,38.044099,114.478038,购物服务;服装鞋帽皮具店;品牌服装店,B01370VJ8L
80,La Chapelle|拉夏贝尔,河北省,石家庄市,新华区,La Chapelle,新华区中山西路与公里街交叉口北50米,38.043886,114.488925,购物服务;服装鞋帽皮具店;品牌服装店,B0FFI2ZG2R
81,La Chapelle|拉夏贝尔,河北省,石家庄市,桥西区,la chapelle,桥西区苑东街道与苑西街交叉口悦享天地一楼,38.039747,114.411361,购物服务;服装鞋帽皮具店;品牌服装店,B0FFHF6U6W
82,La Chapelle|拉夏贝尔,河北省,石家庄市,鹿泉区,La Chapelle,鹿泉区青龙山大道88号附近,37.957441,114.400178,购物服务;服装鞋帽皮具店;品牌服装店,B0FFHLA09C
83,La Chapelle|拉夏贝尔,河北省,石家庄市,正定县,La Chapelle,正定县恒山西路106号北国商城四楼(正定店),38.152070,114.559085,购物服务;服装鞋帽皮具店;品牌服装店,B0FFHRMDQZ
84,La Chapelle|拉夏贝尔,河北省,石家庄市,长安区,La Chapelle(乐汇城),长安区中山东路11号乐汇城2F层2F-N03-06,38.044372,114.498496,购物服务;服装鞋帽皮具店;品牌服装店,B01370X5DW
85,La Chapelle|拉夏贝尔,河北省,石家庄市,裕华区,LA CHAPELLE(怀特国际商城),裕华区育才街265号怀特国际商城3F层,38.023586,114.529907,购物服务;服装鞋帽皮具店;品牌服装店,B0FFFOAAV2
86,La Chapelle|拉夏贝尔,河北省,石家庄市,桥西区,La Chapelle(万象天成购物中心),桥西区裕华西路15号万象天成购物中心F3层310-314,38.036579,114.479273,购物服务;服装鞋帽皮具店;品牌服装店,B0FFF9JW0O
87,La Chapelle|拉夏贝尔,河北省,石家庄市,长安区,La Chapelle(保利广场购物中心),长安区保利广场购物中心,38.072200,114.532592,购物服务;服装鞋帽皮具店;品牌服装店,B0FFIFQL88
88,La Chapelle|拉夏贝尔,河北省,石家庄市,长安区,La Chapelle(北国益庄购物中心),长安区胜利北街289号北国益庄购物中心2F层,38.085766,114.516993,购物服务;服装鞋帽皮具店;品牌服装店,B0FFG26CML
89,La Chapelle|拉夏贝尔,河北省,石家庄市,裕华区,La Chapelle(万达广场),裕华区建华南大街136号万达广场万达百货2层2007-2009,38.023110,114.544882,购物服务;服装鞋帽皮具店;品牌服装店,B01370YL42
90,La Chapelle|拉夏贝尔,河北省,石家庄市,长安区,LA CHAPELLE HOMME(勒泰中心),长安区中山东路39号勒泰中心L2层,38.045735,114.505911,购物服务;服装鞋帽皮具店;品牌服装店,B0FFG3OB7P
91,La Chapelle|拉夏贝尔,河北省,石家庄市,新华区,Candie's(银座商城),新华区中山西路83号银座商城F4层,38.043990,114.485710,购物服务;服装鞋帽皮具店;品牌服装店,B0FFG3OAWG
92,La Chapelle|拉夏贝尔,河北省,石家庄市,桥西区,拉夏贝尔(益友购物中心),桥西区裕华西路128号益友购物中心4F层,38.034022,114.450683,购物服务;服装鞋帽皮具店;品牌服装店,B0FFH9V13F
93,La Chapelle|拉夏贝尔,河北省,石家庄市,辛集市,拉夏贝尔(北国商城),辛集市兴华北路76号北国商城4F层,37.928515,115.215210,购物服务;服装鞋帽皮具店;品牌服装店,B0FFGC6QIV
94,La Chapelle|拉夏贝尔,河北省,石家庄市,桥西区,La Chapelle(汇丰路西美花街一店),桥西区红旗南大街与汇丰路交汇处西南角西美花街生活工场1层,37.993595,114.460268,购物服务;服装鞋帽皮具店;服装鞋帽皮具店,B0FFFXFYWW
95,La Chapelle|拉夏贝尔,河北省,石家庄市,裕华区,拉夏贝尔专柜,裕华区怀特国际商城(育才街)二楼男装,38.023079,114.529976,购物服务;购物相关场所;购物相关场所,B0FFJ08851
96,La Chapelle|拉夏贝尔,河北省,石家庄市,裕华区,拉夏贝尔专柜,裕华区槐安路万达百货四楼,38.023903,114.545509,购物服务;购物相关场所;购物相关场所,B0FFIPJ331
97,La Chapelle|拉夏贝尔,河北省,石家庄市,辛集市,拉夏贝尔专柜,辛集市辛集镇兴华路376号鹿城商业广场1楼,37.940937,115.215195,购物服务;购物相关场所;购物相关场所,B0FFJ2D15P
98,La Chapelle|拉夏贝尔,河北省,石家庄市,新华区,拉夏贝尔集合店(银座商城),新华区中山西路83号银座商城F4层,38.044225,114.485816,购物服务;服装鞋帽皮具店;品牌服装店,B0FFFZG8ET
99,La Chapelle|拉夏贝尔,河北省,石家庄市,桥西区,LA CHAPELLE,桥西区中山西路139号新百广场5层,38.044099,114.478038,购物服务;服装鞋帽皮具店;品牌服装店,B01370VJ8L
100,La Chapelle|拉夏贝尔,河北省,石家庄市,新华区,La Chapelle,新华区中山西路与公里街交叉口北50米,38.043886,114.488925,购物服务;服装鞋帽皮具店;品牌服装店,B0FFI2ZG2R
101,La Chapelle|拉夏贝尔,河北省,石家庄市,桥西区,la chapelle,桥西区苑东街道与苑西街交叉口悦享天地一楼,38.039747,114.411361,购物服务;服装鞋帽皮具店;品牌服装店,B0FFHF6U6W
102,La Chapelle|拉夏贝尔,河北省,石家庄市,鹿泉区,La Chapelle,鹿泉区青龙山大道88号附近,37.957441,114.400178,购物服务;服装鞋帽皮具店;品牌服装店,B0FFHLA09C
103,La Chapelle|拉夏贝尔,河北省,石家庄市,正定县,La Chapelle,正定县恒山西路106号北国商城四楼(正定店),38.152070,114.559085,购物服务;服装鞋帽皮具店;品牌服装店,B0FFHRMDQZ
104,La Chapelle|拉夏贝尔,河北省,石家庄市,长安区,La Chapelle(乐汇城),长安区中山东路11号乐汇城2F层2F-N03-06,38.044372,114.498496,购物服务;服装鞋帽皮具店;品牌服装店,B01370X5DW
105,La Chapelle|拉夏贝尔,河北省,石家庄市,裕华区,LA CHAPELLE(怀特国际商城),裕华区育才街265号怀特国际商城3F层,38.023586,114.529907,购物服务;服装鞋帽皮具店;品牌服装店,B0FFFOAAV2
106,La Chapelle|拉夏贝尔,河北省,石家庄市,桥西区,La Chapelle(万象天成购物中心),桥西区裕华西路15号万象天成购物中心F3层310-314,38.036579,114.479273,购物服务;服装鞋帽皮具店;品牌服装店,B0FFF9JW0O
107,La Chapelle|拉夏贝尔,河北省,石家庄市,长安区,La Chapelle(保利广场购物中心),长安区保利广场购物中心,38.072200,114.532592,购物服务;服装鞋帽皮具店;品牌服装店,B0FFIFQL88
108,La Chapelle|拉夏贝尔,河北省,石家庄市,长安区,La Chapelle(北国益庄购物中心),长安区胜利北街289号北国益庄购物中心2F层,38.085766,114.516993,购物服务;服装鞋帽皮具店;品牌服装店,B0FFG26CML
109,La Chapelle|拉夏贝尔,河北省,石家庄市,裕华区,La Chapelle(万达广场),裕华区建华南大街136号万达广场万达百货2层2007-2009,38.023110,114.544882,购物服务;服装鞋帽皮具店;品牌服装店,B01370YL42
110,La Chapelle|拉夏贝尔,河北省,石家庄市,长安区,LA CHAPELLE HOMME(勒泰中心),长安区中山东路39号勒泰中心L2层,38.045735,114.505911,购物服务;服装鞋帽皮具店;品牌服装店,B0FFG3OB7P
111,La Chapelle|拉夏贝尔,河北省,石家庄市,新华区,Candie's(银座商城),新华区中山西路83号银座商城F4层,38.043990,114.485710,购物服务;服装鞋帽皮具店;品牌服装店,B0FFG3OAWG
112,La Chapelle|拉夏贝尔,河北省,石家庄市,裕华区,Candie's(怀特商业广场),裕华区槐安东路105号怀特商业广场L1层1F-26-27,38.022956,114.524918,购物服务;服装鞋帽皮具店;品牌服装店,B0FFHDTXZB
113,La Chapelle|拉夏贝尔,河北省,石家庄市,桥西区,拉夏贝尔机集合店(西美花街生活工场),桥西区汇丰路8号西美花街生活工场1F层136,37.994300,114.459464,购物服务;服装鞋帽皮具店;品牌服装店,B0FFHPUHKM
114,La Chapelle|拉夏贝尔,河北省,石家庄市,长安区,LA CHAPELLE&Puella(北国商城),长安区中山东路739号北国商城2F层,38.044932,114.575219,购物服务;服装鞋帽皮具店;品牌服装店,B0FFI02XDU
115,La Chapelle|拉夏贝尔,河北省,石家庄市,桥西区,La Chapelle SPORT(万象天成购物中心),桥西区裕华西路15号万象国际中心f3层,38.036658,114.479447,购物服务;服装鞋帽皮具店;品牌服装店,B0FFG3OB7S
116,La Chapelle|拉夏贝尔,河北省,石家庄市,桥西区,贝加尔专柜,桥西区友谊街道友谊大街裕华路益友百货A座三楼,38.033916,114.451237,购物服务;服装鞋帽皮具店;品牌服装店,B0FFH2TTKO
117,La Chapelle|拉夏贝尔,河北省,石家庄市,长安区,拉・贝缇(东胜广场),长安区中山东路508号东胜广场F2层,38.042587,114.556059,购物服务;服装鞋帽皮具店;品牌服装店,B0FFGC5VJZ
118,La Chapelle|拉夏贝尔,河北省,石家庄市,裕华区,拉夏贝儿,裕华区翟营南大街空中花园益东百货二楼,38.009251,114.554741,购物服务;购物相关场所;购物相关场所,B0FFIMK85J
119,La Chapelle|拉夏贝尔,内蒙古自治区,赤峰市,红山区,拉夏贝尔服饰,红山区航宇商厦一楼,42.273929,118.957976,购物服务;购物相关场所;购物相关场所,B0FFHESEG7
120,La Chapelle|拉夏贝尔,内蒙古自治区,赤峰市,红山区,La Chapelle,红山区西拉沐沦大街万达广场内,42.252482,118.915936,购物服务;服装鞋帽皮具店;服装鞋帽皮具店,B0FFG6TD88
121,La Chapelle|拉夏贝尔,内蒙古自治区,赤峰市,红山区,布塔专柜,红山区哈达街中段航宇商厦1楼拉夏贝尔店内,42.273987,118.957954,购物服务;购物相关场所;购物相关场所,B0FFIWUBYO
122,La Chapelle|拉夏贝尔,内蒙古自治区,赤峰市,红山区,拉夏贝尔服饰,红山区航宇商厦一楼,42.273929,118.957976,购物服务;购物相关场所;购物相关场所,B0FFHESEG7
123,La Chapelle|拉夏贝尔,内蒙古自治区,赤峰市,红山区,La Chapelle,红山区西拉沐沦大街万达广场内,42.252482,118.915936,购物服务;服装鞋帽皮具店;服装鞋帽皮具店,B0FFG6TD88
124,La Chapelle|拉夏贝尔,内蒙古自治区,赤峰市,红山区,布塔专柜,红山区哈达街中段航宇商厦1楼拉夏贝尔店内,42.273987,118.957954,购物服务;购物相关场所;购物相关场所,B0FFIWUBYO
125,La Chapelle|拉夏贝尔,江西省,赣州市,瑞金市,拉夏贝尔专柜,瑞金市八一南路国光商场三楼百货,25.872616,116.038850,购物服务;购物相关场所;购物相关场所,B0FFGPK7T7
126,La Chapelle|拉夏贝尔,江西省,赣州市,章贡区,La Chapelle(九方购物中心),章贡区长征大道1号九方购物中心F2层,25.836026,114.936563,购物服务;服装鞋帽皮具店;品牌服装店,B0FFG27KGD
127,La Chapelle|拉夏贝尔,江西省,赣州市,章贡区,LA CHAPELLE,章贡区华润万象城2楼271,25.815309,114.926058,购物服务;服装鞋帽皮具店;品牌服装店,B0FFGJ6NI1
128,La Chapelle|拉夏贝尔,江西省,赣州市,南康区,LaChapelle(国光南康店),南康区东门南路65号附近,25.659190,114.756190,购物服务;服装鞋帽皮具店;品牌服装店,B0FFGYCK11
129,La Chapelle|拉夏贝尔,江西省,赣州市,章贡区,拉夏贝儿专柜,章贡区赞贤路天虹二楼,25.835802,114.935982,购物服务;购物相关场所;购物相关场所,B0FFILX7UO
130,La Chapelle|拉夏贝尔,江西省,赣州市,瑞金市,拉夏贝尔专柜,瑞金市八一南路国光商场三楼百货,25.872616,116.038850,购物服务;购物相关场所;购物相关场所,B0FFGPK7T7
131,La Chapelle|拉夏贝尔,江西省,赣州市,章贡区,La Chapelle(九方购物中心),章贡区长征大道1号九方购物中心F2层,25.836026,114.936563,购物服务;服装鞋帽皮具店;品牌服装店,B0FFG27KGD
132,La Chapelle|拉夏贝尔,江西省,赣州市,章贡区,LA CHAPELLE,章贡区华润万象城2楼271,25.815309,114.926058,购物服务;服装鞋帽皮具店;品牌服装店,B0FFGJ6NI1
133,La Chapelle|拉夏贝尔,江西省,赣州市,南康区,LaChapelle(国光南康店),南康区东门南路65号附近,25.659190,114.756190,购物服务;服装鞋帽皮具店;品牌服装店,B0FFGYCK11
134,La Chapelle|拉夏贝尔,江西省,赣州市,章贡区,拉夏贝儿专柜,章贡区赞贤路天虹二楼,25.835802,114.935982,购物服务;购物相关场所;购物相关场所,B0FFILX7UO
135,La Chapelle|拉夏贝尔,山西省,长治市,城区,La Chapelle(君悦・新天地),城区长兴中路619号君悦・新天地F2层,36.185518,113.114972,购物服务;服装鞋帽皮具店;品牌服装店,B0FFIBOEG2
136,La Chapelle|拉夏贝尔,山西省,长治市,城区,La Chapelle(华诺百货),城区英雄中路184号华诺百货3层,36.192562,113.115045,购物服务;服装鞋帽皮具店;品牌服装店,B0FFG2DRIE
137,La Chapelle|拉夏贝尔,山西省,长治市,城区,嘉汇购物广场,城区英雄中路东侧(近佳威商场),36.186232,113.112715,购物服务;商场;普通商场|购物服务;服装鞋帽皮具店;品牌服装店,B0163001GS
138,La Chapelle|拉夏贝尔,山西省,长治市,城区,La Chapelle(君悦・新天地),城区长兴中路619号君悦・新天地F2层,36.185518,113.114972,购物服务;服装鞋帽皮具店;品牌服装店,B0FFIBOEG2
139,La Chapelle|拉夏贝尔,山西省,长治市,城区,La Chapelle(华诺百货),城区英雄中路184号华诺百货3层,36.192562,113.115045,购物服务;服装鞋帽皮具店;品牌服装店,B0FFG2DRIE
140,La Chapelle|拉夏贝尔,山西省,长治市,城区,嘉汇购物广场,城区英雄中路东侧(近佳威商场),36.186232,113.112715,购物服务;商场;普通商场|购物服务;服装鞋帽皮具店;品牌服装店,B0163001GS
141,La Chapelle|拉夏贝尔,江苏省,常州市,新北区,拉夏贝尔(万达广场),新北区通江中路88号万达广场F3层,31.818025,119.969845,购物服务;服装鞋帽皮具店;品牌服装店,B0FFHW8LK6
142,La Chapelle|拉夏贝尔,江苏省,常州市,新北区,拉夏贝尔(迪诺水镇),新北区海东路60号迪诺水镇奥特莱斯2层,31.821044,120.004555,购物服务;服装鞋帽皮具店;服装鞋帽皮具店,B0FFGD0J6W
143,La Chapelle|拉夏贝尔,江苏省,常州市,新北区,La Chapelle,新北区通江中路598号江南环球港B1层,31.842581,119.978184,购物服务;服装鞋帽皮具店;品牌服装店,B0FFHSOVLU
144,La Chapelle|拉夏贝尔,江苏省,常州市,武进区,La Chapelle,武进区花园街33号路劲又一城1层,31.705011,119.950350,购物服务;服装鞋帽皮具店;品牌服装店,B0FFG29LD8
145,La Chapelle|拉夏贝尔,江苏省,常州市,钟楼区,La Chapelle(吾悦国际广场A座),钟楼区延陵西路123号吾悦国际广场A座F3层,31.780761,119.947865,购物服务;服装鞋帽皮具店;品牌服装店,B0FFFVNN6U
146,La Chapelle|拉夏贝尔,江苏省,常州市,新北区,La Chapelle(万达广场),新北区通江中路88号万达广场万达百货2层2008-2010,31.817383,119.969626,购物服务;服装鞋帽皮具店;品牌服装店,B02070VVVB
147,La Chapelle|拉夏贝尔,江苏省,常州市,溧阳市,Candies(上河城国际购物中心),溧阳市平陵中路369号上河城国际购物中心F2层,31.425836,119.479295,购物服务;服装鞋帽皮具店;品牌服装店,B0FFH8NQT6
148,La Chapelle|拉夏贝尔,江苏省,常州市,天宁区,拉夏贝尔专卖,天宁区永宁北路18号永宁欧尚1楼,31.792655,119.974260,购物服务;购物相关场所;购物相关场所,B0FFGIVDK6
149,La Chapelle|拉夏贝尔,江苏省,常州市,钟楼区,拉夏贝尔店,钟楼区吾悦国际广场A座2楼,31.780670,119.948547,购物服务;购物相关场所;购物相关场所,B0FFJ36K9N
150,La Chapelle|拉夏贝尔,江苏省,常州市,金坛区,拉夏贝尔专柜,金坛区金城镇吾悦广场一楼,31.730100,119.591686,购物服务;购物相关场所;购物相关场所,B0FFHK5832
151,La Chapelle|拉夏贝尔,江苏省,常州市,溧阳市,Vougeek,溧阳市溧城镇平陵中路369号上河城国际购物中心二楼,31.426712,119.478525,购物服务;专卖店;专营店,B0FFIBE71P
152,La Chapelle|拉夏贝尔,江苏省,常州市,新北区,拉夏贝尔(万达广场),新北区通江中路88号万达广场F3层,31.818025,119.969845,购物服务;服装鞋帽皮具店;品牌服装店,B0FFHW8LK6
153,La Chapelle|拉夏贝尔,江苏省,常州市,新北区,拉夏贝尔(迪诺水镇),新北区海东路60号迪诺水镇奥特莱斯2层,31.821044,120.004555,购物服务;服装鞋帽皮具店;服装鞋帽皮具店,B0FFGD0J6W
154,La Chapelle|拉夏贝尔,江苏省,常州市,新北区,La Chapelle,新北区通江中路598号江南环球港B1层,31.842581,119.978184,购物服务;服装鞋帽皮具店;品牌服装店,B0FFHSOVLU
155,La Chapelle|拉夏贝尔,江苏省,常州市,武进区,La Chapelle,武进区花园街33号路劲又一城1层,31.705011,119.950350,购物服务;服装鞋帽皮具店;品牌服装店,B0FFG29LD8
156,La Chapelle|拉夏贝尔,江苏省,常州市,钟楼区,La Chapelle(吾悦国际广场A座),钟楼区延陵西路123号吾悦国际广场A座F3层,31.780761,119.947865,购物服务;服装鞋帽皮具店;品牌服装店,B0FFFVNN6U
157,La Chapelle|拉夏贝尔,江苏省,常州市,新北区,La Chapelle(万达广场),新北区通江中路88号万达广场万达百货2层2008-2010,31.817383,119.969626,购物服务;服装鞋帽皮具店;品牌服装店,B02070VVVB
158,La Chapelle|拉夏贝尔,江苏省,常州市,溧阳市,Candies(上河城国际购物中心),溧阳市平陵中路369号上河城国际购物中心F2层,31.425836,119.479295,购物服务;服装鞋帽皮具店;品牌服装店,B0FFH8NQT6
159,La Chapelle|拉夏贝尔,江苏省,常州市,天宁区,拉夏贝尔专卖,天宁区永宁北路18号永宁欧尚1楼,31.792655,119.974260,购物服务;购物相关场所;购物相关场所,B0FFGIVDK6
160,La Chapelle|拉夏贝尔,江苏省,常州市,钟楼区,拉夏贝尔店,钟楼区吾悦国际广场A座2楼,31.780670,119.948547,购物服务;购物相关场所;购物相关场所,B0FFJ36K9N
161,La Chapelle|拉夏贝尔,江苏省,常州市,金坛区,拉夏贝尔专柜,金坛区金城镇吾悦广场一楼,31.730100,119.591686,购物服务;购物相关场所;购物相关场所,B0FFHK5832
162,La Chapelle|拉夏贝尔,江苏省,常州市,溧阳市,Vougeek,溧阳市溧城镇平陵中路369号上河城国际购物中心二楼,31.426712,119.478525,购物服务;专卖店;专营店,B0FFIBE71P
163,La Chapelle|拉夏贝尔,河南省,安阳市,文峰区,拉夏贝尔,文峰区彰德路银座商城(安阳店)2层,36.101862,114.351345,购物服务;服装鞋帽皮具店;服装鞋帽皮具店,B0FFGAMKIC
164,La Chapelle|拉夏贝尔,河南省,安阳市,林州市,拉夏贝尔专卖店,林州市京新购物中心一楼,36.062456,113.827394,购物服务;购物相关场所;购物相关场所,B0FFJ5GRQN
165,La Chapelle|拉夏贝尔,河南省,安阳市,北关区,LaChapelle,北关区红旗路与人民大道交叉口凯德广场1层(北关),36.109764,114.353322,购物服务;服装鞋帽皮具店;品牌服装店,B0FFFDQLOP
166,La Chapelle|拉夏贝尔,河南省,安阳市,林州市,CANDIE'S,林州市红旗渠大道京新购物中心二楼,36.079530,113.818764,购物服务;服装鞋帽皮具店;品牌服装店,B0FFGZ2RBN
167,La Chapelle|拉夏贝尔,河南省,安阳市,文峰区,拉夏贝尔,文峰区彰德路银座商城(安阳店)2层,36.101862,114.351345,购物服务;服装鞋帽皮具店;服装鞋帽皮具店,B0FFGAMKIC
168,La Chapelle|拉夏贝尔,河南省,安阳市,林州市,拉夏贝尔专卖店,林州市京新购物中心一楼,36.062456,113.827394,购物服务;购物相关场所;购物相关场所,B0FFJ5GRQN
169,La Chapelle|拉夏贝尔,河南省,安阳市,北关区,LaChapelle,北关区红旗路与人民大道交叉口凯德广场1层(北关),36.109764,114.353322,购物服务;服装鞋帽皮具店;品牌服装店,B0FFFDQLOP
170,La Chapelle|拉夏贝尔,河南省,安阳市,林州市,CANDIE'S,林州市红旗渠大道京新购物中心二楼,36.079530,113.818764,购物服务;服装鞋帽皮具店;品牌服装店,B0FFGZ2RBN
171,La Chapelle|拉夏贝尔,广西壮族自治区,柳州市,柳南区,拉夏贝尔(柳南万达广场),柳南区柳邕路263号柳南万达广场F1层,24.288832,109.391706,购物服务;服装鞋帽皮具店;品牌服装店,B0FFHRA1C1
172,La Chapelle|拉夏贝尔,广西壮族自治区,柳州市,柳南区,拉夏贝尔(优越百货),柳南区飞鹅路谷埠街国际商城B座优越百货F2层,24.303771,109.406570,购物服务;服装鞋帽皮具店;品牌服装店,B0FFH9FE62
173,La Chapelle|拉夏贝尔,广西壮族自治区,柳州市,鱼峰区,拉夏贝尔男装,鱼峰区鱼峰路银泰城3楼,24.304419,109.410835,购物服务;服装鞋帽皮具店;服装鞋帽皮具店,B0FFIS2MFE
174,La Chapelle|拉夏贝尔,广西壮族自治区,柳州市,城中区,La Chapelle(五星百货・乐和城),城中区文昌路20号五星百货・乐和城F3层,24.323736,109.438838,购物服务;服装鞋帽皮具店;品牌服装店,B0FFG81XQS
175,La Chapelle|拉夏贝尔,广西壮族自治区,柳州市,城中区,爱拉夏贝尔专柜,城中区桂中大道阳光100梦之岛百货三楼,24.325504,109.432388,购物服务;购物相关场所;购物相关场所,B0FFIT9O4D
176,La Chapelle|拉夏贝尔,广西壮族自治区,柳州市,城中区,La Chapelle,城中区桂中大道阳光100梦之岛百货三楼,24.325470,109.432597,购物服务;服装鞋帽皮具店;品牌服装店,B0FFH8CX0W
177,La Chapelle|拉夏贝尔,广西壮族自治区,柳州市,城中区,LA CHAPELLE,城中区城中街道文兴路万达广场1号门,24.329664,109.441869,购物服务;服装鞋帽皮具店;品牌服装店,B0FFGYJIRY
178,La Chapelle|拉夏贝尔,广西壮族自治区,柳州市,柳南区,拉夏贝尔(柳南万达广场),柳南区柳邕路263号柳南万达广场F1层,24.288832,109.391706,购物服务;服装鞋帽皮具店;品牌服装店,B0FFHRA1C1
179,La Chapelle|拉夏贝尔,广西壮族自治区,柳州市,柳南区,拉夏贝尔(优越百货),柳南区飞鹅路谷埠街国际商城B座优越百货F2层,24.303771,109.406570,购物服务;服装鞋帽皮具店;品牌服装店,B0FFH9FE62
180,La Chapelle|拉夏贝尔,广西壮族自治区,柳州市,鱼峰区,拉夏贝尔男装,鱼峰区鱼峰路银泰城3楼,24.304419,109.410835,购物服务;服装鞋帽皮具店;服装鞋帽皮具店,B0FFIS2MFE
181,La Chapelle|拉夏贝尔,广西壮族自治区,柳州市,城中区,La Chapelle(五星百货・乐和城),城中区文昌路20号五星百货・乐和城F3层,24.323736,109.438838,购物服务;服装鞋帽皮具店;品牌服装店,B0FFG81XQS
182,La Chapelle|拉夏贝尔,广西壮族自治区,柳州市,城中区,爱拉夏贝尔专柜,城中区桂中大道阳光100梦之岛百货三楼,24.325504,109.432388,购物服务;购物相关场所;购物相关场所,B0FFIT9O4D
183,La Chapelle|拉夏贝尔,广西壮族自治区,柳州市,城中区,La Chapelle,城中区桂中大道阳光100梦之岛百货三楼,24.325470,109.432597,购物服务;服装鞋帽皮具店;品牌服装店,B0FFH8CX0W
184,La Chapelle|拉夏贝尔,广西壮族自治区,柳州市,城中区,LA CHAPELLE,城中区城中街道文兴路万达广场1号门,24.329664,109.441869,购物服务;服装鞋帽皮具店;品牌服装店,B0FFGYJIRY
185,La Chapelle|拉夏贝尔,四川省,自贡市,自流井区,拉夏贝尔,自流井区华商购物中心奥特莱斯一楼,29.320586,104.770094,购物服务;服装鞋帽皮具店;服装鞋帽皮具店,B0FFHM8GFW
186,La Chapelle|拉夏贝尔,四川省,自贡市,自流井区,La Chapelle,自流井区新玛特商场2楼,29.355442,104.767541,购物服务;服装鞋帽皮具店;品牌服装店,B0FFHRCKM4
187,La Chapelle|拉夏贝尔,四川省,自贡市,自流井区,La Chapelle(自贡摩尔玛店),自流井区五星街体育场路16号,29.359205,104.772163,购物服务;服装鞋帽皮具店;品牌服装店,B0FFFQLPQ3
188,La Chapelle|拉夏贝尔,四川省,自贡市,自流井区,华东眼镜批发城(五星街店),自流井区五星街千盛百货肯德基拉夏贝尔三楼,29.359502,104.772373,购物服务;专卖店;眼镜店,B032D0N4TT
189,La Chapelle|拉夏贝尔,四川省,自贡市,自流井区,candie's(百盛三店),自流井区汇兴路百盛商场二楼,29.332970,104.771400,购物服务;购物相关场所;购物相关场所,B0FFGMHZOU
190,La Chapelle|拉夏贝尔,四川省,自贡市,自流井区,拉夏贝儿专柜,自流井区五星街新玛特商场二楼,29.355223,104.767424,购物服务;购物相关场所;购物相关场所,B0FFIAP58B
191,La Chapelle|拉夏贝尔,四川省,自贡市,自流井区,拉夏贝尔,自流井区华商购物中心奥特莱斯一楼,29.320586,104.770094,购物服务;服装鞋帽皮具店;服装鞋帽皮具店,B0FFHM8GFW
192,La Chapelle|拉夏贝尔,四川省,自贡市,自流井区,La Chapelle,自流井区新玛特商场2楼,29.355442,104.767541,购物服务;服装鞋帽皮具店;品牌服装店,B0FFHRCKM4
193,La Chapelle|拉夏贝尔,四川省,自贡市,自流井区,La Chapelle(自贡摩尔玛店),自流井区五星街体育场路16号,29.359205,104.772163,购物服务;服装鞋帽皮具店;品牌服装店,B0FFFQLPQ3
194,La Chapelle|拉夏贝尔,四川省,自贡市,自流井区,华东眼镜批发城(五星街店),自流井区五星街千盛百货肯德基拉夏贝尔三楼,29.359502,104.772373,购物服务;专卖店;眼镜店,B032D0N4TT
195,La Chapelle|拉夏贝尔,四川省,自贡市,自流井区,candie's(百盛三店),自流井区汇兴路百盛商场二楼,29.332970,104.771400,购物服务;购物相关场所;购物相关场所,B0FFGMHZOU
196,La Chapelle|拉夏贝尔,四川省,自贡市,自流井区,拉夏贝儿专柜,自流井区五星街新玛特商场二楼,29.355223,104.767424,购物服务;购物相关场所;购物相关场所,B0FFIAP58B
197,La Chapelle|拉夏贝尔,四川省,内江市,东兴区,拉夏贝尔(北京华联购物中心),东兴区汉安大道西段89号北京华联购物中心F1层,29.603220,105.065544,购物服务;服装鞋帽皮具店;品牌服装店,B0FFFSR9HU
198,La Chapelle|拉夏贝尔,四川省,内江市,东兴区,La Chapelle(卓尔商场店),东兴区西林大道58号卓尔百货临江店1层,29.594259,105.068620,购物服务;服装鞋帽皮具店;品牌服装店,B0FFG1XN5B
199,La Chapelle|拉夏贝尔,四川省,内江市,东兴区,拉夏贝尔(北京华联购物中心),东兴区汉安大道西段89号北京华联购物中心F1层,29.603220,105.065544,购物服务;服装鞋帽皮具店;品牌服装店,B0FFFSR9HU
200,La Chapelle|拉夏贝尔,四川省,内江市,东兴区,La Chapelle(卓尔商场店),东兴区西林大道58号卓尔百货临江店1层,29.594259,105.068620,购物服务;服装鞋帽皮具店;品牌服装店,B0FFG1XN5B
201,La Chapelle|拉夏贝尔,江西省,景德镇市,珠山区,La Chapelle Sport(华达百货),珠山区解放路106号华达百货F2层,29.289439,117.216730,购物服务;服装鞋帽皮具店;品牌服装店,B0FFI12ZC4
202,La Chapelle|拉夏贝尔,江西省,景德镇市,珠山区,Candie's(华达百货),珠山区解放路106号华达百货F2层,29.289443,117.216596,购物服务;服装鞋帽皮具店;品牌服装店,B0FFHCO5YA
203,La Chapelle|拉夏贝尔,江西省,景德镇市,珠山区,La Chapelle Sport(华达百货),珠山区解放路106号华达百货F2层,29.289439,117.216730,购物服务;服装鞋帽皮具店;品牌服装店,B0FFI12ZC4
204,La Chapelle|拉夏贝尔,江西省,景德镇市,珠山区,Candie's(华达百货),珠山区解放路106号华达百货F2层,29.289443,117.216596,购物服务;服装鞋帽皮具店;品牌服装店,B0FFHCO5YA
205,La Chapelle|拉夏贝尔,河南省,济源市,济源市,拉夏贝尔(宣化店),济源市宣化街曼哈顿广场B座对面,35.092011,112.593687,购物服务;服装鞋帽皮具店;服装鞋帽皮具店,B0FFHV4DFQ
206,La Chapelle|拉夏贝尔,河南省,济源市,济源市,La Chapelle(天坛路),济源市天坛路与宁安街东十八巷交叉口西南100米,35.088581,112.572906,购物服务;服装鞋帽皮具店;品牌服装店,B0FFGRHPX6
207,La Chapelle|拉夏贝尔,河南省,济源市,济源市,拉夏贝尔(宣化店),济源市宣化街曼哈顿广场B座对面,35.092011,112.593687,购物服务;服装鞋帽皮具店;服装鞋帽皮具店,B0FFHV4DFQ
208,La Chapelle|拉夏贝尔,河南省,济源市,济源市,La Chapelle(天坛路),济源市天坛路与宁安街东十八巷交叉口西南100米,35.088581,112.572906,购物服务;服装鞋帽皮具店;品牌服装店,B0FFGRHPX6
209,La Chapelle|拉夏贝尔,江苏省,徐州市,鼓楼区,拉夏贝尔(和信商业广场),鼓楼区大坝头复兴北路27号和信商业广场F3层,34.267778,117.202224,购物服务;服装鞋帽皮具店;品牌服装店,B0FFHLI4CD
210,La Chapelle|拉夏贝尔,江苏省,徐州市,鼓楼区,拉夏贝尔专柜,鼓楼区淮海东路29号苏宁广场三楼,34.265601,117.188473,购物服务;购物相关场所;购物相关场所,B0FFI13OUV
211,La Chapelle|拉夏贝尔,江苏省,徐州市,云龙区,拉夏贝尔专柜,云龙区中山南路一号中央百货大楼五楼,34.263039,117.186188,购物服务;购物相关场所;购物相关场所,B0FFIMAJIK
212,La Chapelle|拉夏贝尔,江苏省,徐州市,云龙区,拉夏贝尔专柜,云龙区中山南路1号中央百大五楼,34.261185,117.186485,购物服务;购物相关场所;购物相关场所,B0FFJ4ZCO1
213,La Chapelle|拉夏贝尔,江苏省,徐州市,邳州市,拉夏贝尔专柜,邳州市新苏中心二楼,34.328342,117.979577,购物服务;购物相关场所;购物相关场所,B0FFHPQ3Y5
214,La Chapelle|拉夏贝尔,江苏省,徐州市,云龙区,La Chapelle,云龙区和平路与解放路交叉口正翔商业广场1层,34.250687,117.193990,购物服务;服装鞋帽皮具店;品牌服装店,B0FFG1JJUW
215,La Chapelle|拉夏贝尔,江苏省,徐州市,鼓楼区,La Chapelle(金马路),鼓楼区殷庄路52号汇邻湾广场F1,34.301421,117.206786,购物服务;服装鞋帽皮具店;服装鞋帽皮具店,B0FFFSYXS4
216,La Chapelle|拉夏贝尔,江苏省,徐州市,云龙区,La Chapelle(徐州市百货大楼),云龙区中山南路1号徐州市百货大楼F2层,34.262561,117.186227,购物服务;服装鞋帽皮具店;品牌服装店,B0FFG1M36B
217,La Chapelle|拉夏贝尔,江苏省,徐州市,鼓楼区,LA CHAPELLE(金地商都),鼓楼区中山北路6号金地商都F2层,34.267450,117.186505,购物服务;服装鞋帽皮具店;品牌服装店,B0FFH2GLLK
218,La Chapelle|拉夏贝尔,江苏省,徐州市,鼓楼区,LA CHAPELLE(金地商都),鼓楼区中山北路6号金地商都F1层,34.268126,117.186919,购物服务;服装鞋帽皮具店;品牌服装店,B0FFHFFL4V
219,La Chapelle|拉夏贝尔,江苏省,徐州市,睢宁县,拉夏贝尔专卖店,睢宁县曼哈顿商业广场二楼,33.898956,117.956497,购物服务;购物相关场所;购物相关场所,B0FFI0EMOY
220,La Chapelle|拉夏贝尔,江苏省,徐州市,铜山区,VOINGE/La chapelle(万达广场),铜山区北京北路19号万达广场F1层,34.190571,117.187794,购物服务;购物相关场所;购物相关场所,B0FFI56ADQ
221,La Chapelle|拉夏贝尔,江苏省,徐州市,鼓楼区,Puella(金地商都),鼓楼区中山北路6号金地商都F2层,34.267497,117.186677,购物服务;服装鞋帽皮具店;品牌服装店,B0FFHSA19T
222,La Chapelle|拉夏贝尔,江苏省,徐州市,鼓楼区,拉夏贝尔(和信商业广场),鼓楼区大坝头复兴北路27号和信商业广场F3层,34.267778,117.202224,购物服务;服装鞋帽皮具店;品牌服装店,B0FFHLI4CD
223,La Chapelle|拉夏贝尔,江苏省,徐州市,鼓楼区,拉夏贝尔专柜,鼓楼区淮海东路29号苏宁广场三楼,34.265601,117.188473,购物服务;购物相关场所;购物相关场所,B0FFI13OUV
224,La Chapelle|拉夏贝尔,江苏省,徐州市,云龙区,拉夏贝尔专柜,云龙区中山南路一号中央百货大楼五楼,34.263039,117.186188,购物服务;购物相关场所;购物相关场所,B0FFIMAJIK
225,La Chapelle|拉夏贝尔,江苏省,徐州市,云龙区,拉夏贝尔专柜,云龙区中山南路1号中央百大五楼,34.261185,117.186485,购物服务;购物相关场所;购物相关场所,B0FFJ4ZCO1
226,La Chapelle|拉夏贝尔,江苏省,徐州市,邳州市,拉夏贝尔专柜,邳州市新苏中心二楼,34.328342,117.979577,购物服务;购物相关场所;购物相关场所,B0FFHPQ3Y5
227,La Chapelle|拉夏贝尔,江苏省,徐州市,云龙区,La Chapelle,云龙区和平路与解放路交叉口正翔商业广场1层,34.250687,117.193990,购物服务;服装鞋帽皮具店;品牌服装店,B0FFG1JJUW
228,La Chapelle|拉夏贝尔,江苏省,徐州市,鼓楼区,La Chapelle(金马路),鼓楼区殷庄路52号汇邻湾广场F1,34.301421,117.206786,购物服务;服装鞋帽皮具店;服装鞋帽皮具店,B0FFFSYXS4
229,La Chapelle|拉夏贝尔,江苏省,徐州市,云龙区,La Chapelle(徐州市百货大楼),云龙区中山南路1号徐州市百货大楼F2层,34.262561,117.186227,购物服务;服装鞋帽皮具店;品牌服装店,B0FFG1M36B
230,La Chapelle|拉夏贝尔,江苏省,徐州市,鼓楼区,LA CHAPELLE(金地商都),鼓楼区中山北路6号金地商都F2层,34.267450,117.186505,购物服务;服装鞋帽皮具店;品牌服装店,B0FFH2GLLK
231,La Chapelle|拉夏贝尔,江苏省,徐州市,鼓楼区,LA CHAPELLE(金地商都),鼓楼区中山北路6号金地商都F1层,34.268126,117.186919,购物服务;服装鞋帽皮具店;品牌服装店,B0FFHFFL4V
232,La Chapelle|拉夏贝尔,江苏省,徐州市,睢宁县,拉夏贝尔专卖店,睢宁县曼哈顿商业广场二楼,33.898956,117.956497,购物服务;购物相关场所;购物相关场所,B0FFI0EMOY
233,La Chapelle|拉夏贝尔,江苏省,徐州市,铜山区,VOINGE/La chapelle(万达广场),铜山区北京北路19号万达广场F1层,34.190571,117.187794,购物服务;购物相关场所;购物相关场所,B0FFI56ADQ
234,La Chapelle|拉夏贝尔,江苏省,徐州市,鼓楼区,Puella(金地商都),鼓楼区中山北路6号金地商都F2层,34.267497,117.186677,购物服务;服装鞋帽皮具店;品牌服装店,B0FFHSA19T
235,La Chapelle|拉夏贝尔,山西省,晋中市,介休市,拉夏贝尔西区,介休市新建西路鼎尚时代广场三层,37.018875,111.917465,购物服务;购物相关场所;购物相关场所,B0FFIBTS8E
236,La Chapelle|拉夏贝尔,山西省,晋中市,太谷县,lachapelle,太谷县北城区管委会家家利超市四层,37.421384,112.559718,购物服务;服装鞋帽皮具店;品牌服装店,B0FFG0BATM
237,La Chapelle|拉夏贝尔,山西省,晋中市,介休市,Candie's,介休市西南街道鼎尚时代广场三层西楼,37.019236,111.917367,购物服务;服装鞋帽皮具店;品牌服装店,B0FFFYHB8C
238,La Chapelle|拉夏贝尔,山西省,晋中市,太谷县,拉夏贝儿,太谷县管委会新建路124号家家利购物广场四层,37.421280,112.559408,购物服务;购物相关场所;购物相关场所,B0FFHIQKW1
239,La Chapelle|拉夏贝尔,山西省,晋中市,介休市,拉夏贝尔西区,介休市新建西路鼎尚时代广场三层,37.018875,111.917465,购物服务;购物相关场所;购物相关场所,B0FFIBTS8E
240,La Chapelle|拉夏贝尔,山西省,晋中市,太谷县,lachapelle,太谷县北城区管委会家家利超市四层,37.421384,112.559718,购物服务;服装鞋帽皮具店;品牌服装店,B0FFG0BATM
241,La Chapelle|拉夏贝尔,山西省,晋中市,介休市,Candie's,介休市西南街道鼎尚时代广场三层西楼,37.019236,111.917367,购物服务;服装鞋帽皮具店;品牌服装店,B0FFFYHB8C
242,La Chapelle|拉夏贝尔,山西省,晋中市,太谷县,拉夏贝儿,太谷县管委会新建路124号家家利购物广场四层,37.421280,112.559408,购物服务;购物相关场所;购物相关场所,B0FFHIQKW1
243,La Chapelle|拉夏贝尔,黑龙江省,佳木斯市,富锦市,拉夏贝尔专柜,富锦市大商新玛特三楼,47.249000,132.039305,购物服务;购物相关场所;购物相关场所,B0FFHZUCNJ
244,La Chapelle|拉夏贝尔,黑龙江省,佳木斯市,向阳区,拉夏贝尔专拒,向阳区百货大楼五楼,46.810982,130.363052,购物服务;购物相关场所;购物相关场所,B0FFJ31SUI
245,La Chapelle|拉夏贝尔,黑龙江省,佳木斯市,富锦市,拉夏贝尔专柜,富锦市大商新玛特三楼,47.249000,132.039305,购物服务;购物相关场所;购物相关场所,B0FFHZUCNJ
246,La Chapelle|拉夏贝尔,黑龙江省,佳木斯市,向阳区,拉夏贝尔专拒,向阳区百货大楼五楼,46.810982,130.363052,购物服务;购物相关场所;购物相关场所,B0FFJ31SUI
247,La Chapelle|拉夏贝尔,湖北省,仙桃市,仙桃市,La Chapelle(世界城),仙桃市沔阳大道43号世界城F2层,30.370600,113.450349,购物服务;服装鞋帽皮具店;品牌服装店,B0FFFDJ91O
248,La Chapelle|拉夏贝尔,湖北省,仙桃市,仙桃市,La Chapelle(世界城),仙桃市沔阳大道43号世界城F2层,30.370600,113.450349,购物服务;服装鞋帽皮具店;品牌服装店,B0FFFDJ91O
249,La Chapelle|拉夏贝尔,浙江省,宁波市,江北区,拉夏贝尔(万达广场),江北区江北大道188号万达广场F2层,29.915789,121.529948,购物服务;服装鞋帽皮具店;品牌服装店,B0FFHE65B5
250,La Chapelle|拉夏贝尔,浙江省,宁波市,海曙区,拉夏贝尔(银泰百货新区),海曙区中山东路238号银泰百货新区F4层4F-A1,29.870083,121.557896,购物服务;服装鞋帽皮具店;品牌服装店,B0FFIK69RB
251,La Chapelle|拉夏贝尔,浙江省,宁波市,余姚市,拉夏贝尔(万达广场),余姚市四明西路855号万达广场F1层,30.028236,121.132274,购物服务;服装鞋帽皮具店;品牌服装店,B0FFHDDDAZ
252,La Chapelle|拉夏贝尔,浙江省,宁波市,海曙区,La Chapelle(酷购商城B馆),海曙区右营巷43号酷购商城B馆2F层F2-09,29.869186,121.552351,购物服务;服装鞋帽皮具店;品牌服装店,B0FFHJDL8K
253,La Chapelle|拉夏贝尔,浙江省,宁波市,北仑区,La Chapelle(银泰百货),北仑区中河路399号北仑银泰城f1层、f2层1088,29.896175,121.830454,购物服务;服装鞋帽皮具店;品牌服装店,B0FFGAHBZW
254,La Chapelle|拉夏贝尔,浙江省,宁波市,海曙区,La Chapelle(宁波高鑫广场),海曙区新星路111号宁波高鑫广场F1层,29.895618,121.526904,购物服务;服装鞋帽皮具店;品牌服装店,B0FFI78ZX2
255,La Chapelle|拉夏贝尔,浙江省,宁波市,奉化区,La Chapelle(银泰百货),奉化区南山路150号银泰百货F2层,29.664573,121.412648,购物服务;服装鞋帽皮具店;品牌服装店,B0FFG1MHC5
256,La Chapelle|拉夏贝尔,浙江省,宁波市,海曙区,LA CHAPELLE(杉井奥特莱斯广场),海曙区秋实路555号杉井奥特莱斯广场F2层,29.857366,121.449878,购物服务;服装鞋帽皮具店;品牌服装店,B0FFHF8KDB
257,La Chapelle|拉夏贝尔,浙江省,宁波市,海曙区,La Chapelle(宁波第二百货商店),海曙区中山东路220号宁波第二百货商店F3层,29.870538,121.557306,购物服务;服装鞋帽皮具店;品牌服装店,B0FFHC1LRI
258,La Chapelle|拉夏贝尔,浙江省,宁波市,余姚市,LA CHAPELLE(余姚五彩城),余姚市城东路888号余姚五彩城F1层,30.066960,121.179828,购物服务;服装鞋帽皮具店;品牌服装店,B0FFHMLWB2
259,La Chapelle|拉夏贝尔,浙江省,宁波市,余姚市,La Chapelle(新华联百货),余姚市康复路与舜水南路交叉口西南100米新华联百货F2层,30.040369,121.154197,购物服务;服装鞋帽皮具店;品牌服装店,B0FFG2A00U
260,La Chapelle|拉夏贝尔,浙江省,宁波市,宁海县,La Chapelle(太平洋国际购物中心),宁海县中山中路1号太平洋国际购物中心F2层,29.298109,121.428358,购物服务;服装鞋帽皮具店;品牌服装店,B0FFG26GEE
261,La Chapelle|拉夏贝尔,浙江省,宁波市,奉化区,La Chapelle(太平洋商厦),奉化区大成路161号太平洋百货2F拉夏贝尔,29.670937,121.413151,购物服务;服装鞋帽皮具店;品牌服装店,B0FFG53RSD
262,La Chapelle|拉夏贝尔,浙江省,宁波市,海曙区,LACHAPELLE(宁波新华联商厦),海曙区中山东路181号宁波新华联商厦F2层,29.872030,121.556011,购物服务;服装鞋帽皮具店;品牌鞋店|购物服务;服装鞋帽皮具店;品牌服装店,B0FFFDGJY8
263,La Chapelle|拉夏贝尔,浙江省,宁波市,鄞州区,LACHAPELLE(利时城市奥特莱斯店),鄞州区四明中路688号利时城市奥特莱斯广场1层,29.827773,121.553521,购物服务;服装鞋帽皮具店;品牌服装店,B0FFGIP97N
264,La Chapelle|拉夏贝尔,浙江省,宁波市,宁海县,LaChapelle(西子国际),宁海县正学东路1号西子国际F1层,29.302704,121.440684,购物服务;服装鞋帽皮具店;品牌服装店,B0FFHDD96Z
265,La Chapelle|拉夏贝尔,浙江省,宁波市,鄞州区,拉夏贝尔US,鄞州区中山东路1083号世纪东方广场,29.861683,121.593941,购物服务;购物相关场所;购物相关场所,B0FFIBURNW
266,La Chapelle|拉夏贝尔,浙江省,宁波市,鄞州区,拉夏贝尔7M,鄞州区四明中路688号利时奥特莱斯二楼,29.827607,121.553825,购物服务;购物相关场所;购物相关场所,B0FFIA311M
267,La Chapelle|拉夏贝尔,浙江省,宁波市,海曙区,Puella(宁波第二百货商店),海曙区中山东路220号宁波第二百货商店F3层,29.870335,121.557291,购物服务;服装鞋帽皮具店;品牌服装店,B0FFGOE3AZ
268,La Chapelle|拉夏贝尔,浙江省,宁波市,余姚市,Candie's(余姚五彩城),余姚市城东路888号余姚五彩城F2层,30.066850,121.180206,购物服务;服装鞋帽皮具店;品牌服装店,B0FFGCACBW
269,La Chapelle|拉夏贝尔,浙江省,宁波市,江北区,拉夏贝尔(万达广场),江北区江北大道188号万达广场F2层,29.915789,121.529948,购物服务;服装鞋帽皮具店;品牌服装店,B0FFHE65B5
270,La Chapelle|拉夏贝尔,浙江省,宁波市,海曙区,拉夏贝尔(银泰百货新区),海曙区中山东路238号银泰百货新区F4层4F-A1,29.870083,121.557896,购物服务;服装鞋帽皮具店;品牌服装店,B0FFIK69RB
271,La Chapelle|拉夏贝尔,浙江省,宁波市,余姚市,拉夏贝尔(万达广场),余姚市四明西路855号万达广场F1层,30.028236,121.132274,购物服务;服装鞋帽皮具店;品牌服装店,B0FFHDDDAZ
272,La Chapelle|拉夏贝尔,浙江省,宁波市,海曙区,La Chapelle(酷购商城B馆),海曙区右营巷43号酷购商城B馆2F层F2-09,29.869186,121.552351,购物服务;服装鞋帽皮具店;品牌服装店,B0FFHJDL8K
273,La Chapelle|拉夏贝尔,浙江省,宁波市,北仑区,La Chapelle(银泰百货),北仑区中河路399号北仑银泰城f1层、f2层1088,29.896175,121.830454,购物服务;服装鞋帽皮具店;品牌服装店,B0FFGAHBZW
274,La Chapelle|拉夏贝尔,浙江省,宁波市,海曙区,La Chapelle(宁波高鑫广场),海曙区新星路111号宁波高鑫广场F1层,29.895618,121.526904,购物服务;服装鞋帽皮具店;品牌服装店,B0FFI78ZX2
275,La Chapelle|拉夏贝尔,浙江省,宁波市,奉化区,La Chapelle(银泰百货),奉化区南山路150号银泰百货F2层,29.664573,121.412648,购物服务;服装鞋帽皮具店;品牌服装店,B0FFG1MHC5
276,La Chapelle|拉夏贝尔,浙江省,宁波市,海曙区,LA CHAPELLE(杉井奥特莱斯广场),海曙区秋实路555号杉井奥特莱斯广场F2层,29.857366,121.449878,购物服务;服装鞋帽皮具店;品牌服装店,B0FFHF8KDB
277,La Chapelle|拉夏贝尔,浙江省,宁波市,海曙区,La Chapelle(宁波第二百货商店),海曙区中山东路220号宁波第二百货商店F3层,29.870538,121.557306,购物服务;服装鞋帽皮具店;品牌服装店,B0FFHC1LRI
278,La Chapelle|拉夏贝尔,浙江省,宁波市,余姚市,LA CHAPELLE(余姚五彩城),余姚市城东路888号余姚五彩城F1层,30.066960,121.179828,购物服务;服装鞋帽皮具店;品牌服装店,B0FFHMLWB2
279,La Chapelle|拉夏贝尔,浙江省,宁波市,余姚市,La Chapelle(新华联百货),余姚市康复路与舜水南路交叉口西南100米新华联百货F2层,30.040369,121.154197,购物服务;服装鞋帽皮具店;品牌服装店,B0FFG2A00U
280,La Chapelle|拉夏贝尔,浙江省,宁波市,宁海县,La Chapelle(太平洋国际购物中心),宁海县中山中路1号太平洋国际购物中心F2层,29.298109,121.428358,购物服务;服装鞋帽皮具店;品牌服装店,B0FFG26GEE
281,La Chapelle|拉夏贝尔,浙江省,宁波市,奉化区,La Chapelle(太平洋商厦),奉化区大成路161号太平洋百货2F拉夏贝尔,29.670937,121.413151,购物服务;服装鞋帽皮具店;品牌服装店,B0FFG53RSD
282,La Chapelle|拉夏贝尔,浙江省,宁波市,海曙区,LACHAPELLE(宁波新华联商厦),海曙区中山东路181号宁波新华联商厦F2层,29.872030,121.556011,购物服务;服装鞋帽皮具店;品牌鞋店|购物服务;服装鞋帽皮具店;品牌服装店,B0FFFDGJY8
283,La Chapelle|拉夏贝尔,浙江省,宁波市,鄞州区,LACHAPELLE(利时城市奥特莱斯店),鄞州区四明中路688号利时城市奥特莱斯广场1层,29.827773,121.553521,购物服务;服装鞋帽皮具店;品牌服装店,B0FFGIP97N
284,La Chapelle|拉夏贝尔,浙江省,宁波市,宁海县,LaChapelle(西子国际),宁海县正学东路1号西子国际F1层,29.302704,121.440684,购物服务;服装鞋帽皮具店;品牌服装店,B0FFHDD96Z
285,La Chapelle|拉夏贝尔,浙江省,宁波市,鄞州区,拉夏贝尔US,鄞州区中山东路1083号世纪东方广场,29.861683,121.593941,购物服务;购物相关场所;购物相关场所,B0FFIBURNW
286,La Chapelle|拉夏贝尔,浙江省,宁波市,鄞州区,拉夏贝尔7M,鄞州区四明中路688号利时奥特莱斯二楼,29.827607,121.553825,购物服务;购物相关场所;购物相关场所,B0FFIA311M
287,La Chapelle|拉夏贝尔,浙江省,宁波市,海曙区,Puella(宁波第二百货商店),海曙区中山东路220号宁波第二百货商店F3层,29.870335,121.557291,购物服务;服装鞋帽皮具店;品牌服装店,B0FFGOE3AZ
288,La Chapelle|拉夏贝尔,浙江省,宁波市,余姚市,Candie's(余姚五彩城),余姚市城东路888号余姚五彩城F2层,30.066850,121.180206,购物服务;服装鞋帽皮具店;品牌服装店,B0FFGCACBW
289,La Chapelle|拉夏贝尔,浙江省,宁波市,余姚市,Candie's,余姚市金型路华润五彩城2层,30.066600,121.177079,购物服务;服装鞋帽皮具店;品牌服装店,B0FFHMW63K
290,La Chapelle|拉夏贝尔,安徽省,安庆市,大观区,拉夏贝尔专柜,大观区八佰伴三楼,30.517047,117.042048,购物服务;购物相关场所;购物相关场所,B0FFHPFEZY
291,La Chapelle|拉夏贝尔,安徽省,安庆市,迎江区,La Chapelle(大金新百),迎江区人民路416号大金新百F2层,30.505760,117.045461,购物服务;服装鞋帽皮具店;品牌服装店,B0FFG25UZX
292,La Chapelle|拉夏贝尔,安徽省,安庆市,大观区,拉夏贝尔专柜,大观区八佰伴三楼,30.517047,117.042048,购物服务;购物相关场所;购物相关场所,B0FFHPFEZY
293,La Chapelle|拉夏贝尔,安徽省,安庆市,迎江区,La Chapelle(大金新百),迎江区人民路416号大金新百F2层,30.505760,117.045461,购物服务;服装鞋帽皮具店;品牌服装店,B0FFG25UZX
294,La Chapelle|拉夏贝尔,四川省,绵阳市,涪城区,拉夏贝尔(万达广场),涪城区花园路9号万达广场F3层,31.453793,104.719360,购物服务;服装鞋帽皮具店;品牌服装店,B0FFHUNV02
295,La Chapelle|拉夏贝尔,四川省,绵阳市,江油市,拉夏贝尔(汇星百货),江油市解放路南段2号汇星百货F3层,31.773732,104.742250,购物服务;服装鞋帽皮具店;品牌服装店,B0FFHWVEY3
296,La Chapelle|拉夏贝尔,四川省,绵阳市,江油市,拉夏贝尔集合店,江油市中坝镇诗仙路摩尔玛一楼,31.777014,104.744388,购物服务;服装鞋帽皮具店;品牌服装店,B0FFHS3E7S
297,La Chapelle|拉夏贝尔,四川省,绵阳市,涪城区,LA CHAPELLE(茂业百货),涪城区涪城路131-2号茂业百货F4层,31.461087,104.751751,购物服务;服装鞋帽皮具店;品牌服装店,B0FFG7Y8I1
298,La Chapelle|拉夏贝尔,四川省,绵阳市,三台县,La Chapelle(梓州购物中心集合店),三台县潼川镇解放上街49号梓州购物中心1层,31.092780,105.089850,购物服务;服装鞋帽皮具店;品牌服装店,B0FFG7ZX46
299,La Chapelle|拉夏贝尔,四川省,绵阳市,江油市,拉夏贝尔专柜,江油市太平路顺辉巴登广场,31.765311,104.730075,购物服务;购物相关场所;购物相关场所,B0FFI6GLXR
300,La Chapelle|拉夏贝尔,四川省,绵阳市,涪城区,La Chapelle SPORT(梅西百货),涪城区兴达街12号梅西百货F2层,31.460893,104.753397,购物服务;服装鞋帽皮具店;品牌服装店,B0FFI55R0F
301,La Chapelle|拉夏贝尔,四川省,绵阳市,涪城区,La Chapelle SPORT(万达广场),涪城区花园路9号万达广场F3层,31.453666,104.719375,购物服务;服装鞋帽皮具店;品牌服装店,B0FFHYOGPV
302,La Chapelle|拉夏贝尔,四川省,绵阳市,涪城区,拉夏男装,涪城区公园路茂业百货4楼,31.460897,104.751305,购物服务;服装鞋帽皮具店;服装鞋帽皮具店,B0FFJ0E71W
303,La Chapelle|拉夏贝尔,四川省,绵阳市,江油市,拉夏贝儿,江油市中坝街道中坝镇江油摩尔玛梅西百货,31.777393,104.744301,购物服务;购物相关场所;购物相关场所,B0FFJ3RCWX
304,La Chapelle|拉夏贝尔,四川省,绵阳市,涪城区,拉夏贝尔(万达广场),涪城区花园路9号万达广场F3层,31.453793,104.719360,购物服务;服装鞋帽皮具店;品牌服装店,B0FFHUNV02
305,La Chapelle|拉夏贝尔,四川省,绵阳市,江油市,拉夏贝尔(汇星百货),江油市解放路南段2号汇星百货F3层,31.773732,104.742250,购物服务;服装鞋帽皮具店;品牌服装店,B0FFHWVEY3
306,La Chapelle|拉夏贝尔,四川省,绵阳市,江油市,拉夏贝尔集合店,江油市中坝镇诗仙路摩尔玛一楼,31.777014,104.744388,购物服务;服装鞋帽皮具店;品牌服装店,B0FFHS3E7S
307,La Chapelle|拉夏贝尔,四川省,绵阳市,涪城区,LA CHAPELLE(茂业百货),涪城区涪城路131-2号茂业百货F4层,31.461087,104.751751,购物服务;服装鞋帽皮具店;品牌服装店,B0FFG7Y8I1
308,La Chapelle|拉夏贝尔,四川省,绵阳市,三台县,La Chapelle(梓州购物中心集合店),三台县潼川镇解放上街49号梓州购物中心1层,31.092780,105.089850,购物服务;服装鞋帽皮具店;品牌服装店,B0FFG7ZX46
309,La Chapelle|拉夏贝尔,四川省,绵阳市,江油市,拉夏贝尔专柜,江油市太平路顺辉巴登广场,31.765311,104.730075,购物服务;购物相关场所;购物相关场所,B0FFI6GLXR
310,La Chapelle|拉夏贝尔,四川省,绵阳市,涪城区,La Chapelle SPORT(梅西百货),涪城区兴达街12号梅西百货F2层,31.460893,104.753397,购物服务;服装鞋帽皮具店;品牌服装店,B0FFI55R0F
311,La Chapelle|拉夏贝尔,四川省,绵阳市,涪城区,La Chapelle SPORT(万达广场),涪城区花园路9号万达广场F3层,31.453666,104.719375,购物服务;服装鞋帽皮具店;品牌服装店,B0FFHYOGPV
312,La Chapelle|拉夏贝尔,四川省,绵阳市,涪城区,拉夏男装,涪城区公园路茂业百货4楼,31.460897,104.751305,购物服务;服装鞋帽皮具店;服装鞋帽皮具店,B0FFJ0E71W
313,La Chapelle|拉夏贝尔,四川省,绵阳市,江油市,拉夏贝儿,江油市中坝街道中坝镇江油摩尔玛梅西百货,31.777393,104.744301,购物服务;购物相关场所;购物相关场所,B0FFJ3RCWX
314,La Chapelle|拉夏贝尔,安徽省,滁州市,琅琊区,贝尔,琅琊区滁洲市天长东路157号商之都2层,32.303000,118.313871,购物服务;服装鞋帽皮具店;服装鞋帽皮具店,B0FFI9OW8L
315,La Chapelle|拉夏贝尔,安徽省,滁州市,琅琊区,拉夏贝尔(1912购物中心),琅琊区育新东路158号1912购物中心F1层,32.312686,118.309815,购物服务;服装鞋帽皮具店;品牌服装店,B0FFI2YO9I
316,La Chapelle|拉夏贝尔,安徽省,滁州市,天长市,拉夏贝尔店,天长市天发广场,32.678960,119.000435,购物服务;购物相关场所;购物相关场所,B0FFHUKXVL
317,La Chapelle|拉夏贝尔,安徽省,滁州市,琅琊区,拉夏贝尔集合店(1912购物中心),琅琊区育新东路158号1912购物中心F2层,32.312789,118.309758,购物服务;服装鞋帽皮具店;品牌服装店,B0FFI2YO9V
318,La Chapelle|拉夏贝尔,安徽省,滁州市,南谯区,LA CHAPELLE服装店,南谯区金鹏99广场1楼,32.254559,118.311554,购物服务;购物相关场所;购物相关场所,B0FFJ11A5A
319,La Chapelle|拉夏贝尔,安徽省,滁州市,琅琊区,贝尔,琅琊区滁洲市天长东路157号商之都2层,32.303000,118.313871,购物服务;服装鞋帽皮具店;服装鞋帽皮具店,B0FFI9OW8L
320,La Chapelle|拉夏贝尔,安徽省,滁州市,琅琊区,拉夏贝尔(1912购物中心),琅琊区育新东路158号1912购物中心F1层,32.312686,118.309815,购物服务;服装鞋帽皮具店;品牌服装店,B0FFI2YO9I
321,La Chapelle|拉夏贝尔,安徽省,滁州市,天长市,拉夏贝尔店,天长市天发广场,32.678960,119.000435,购物服务;购物相关场所;购物相关场所,B0FFHUKXVL
322,La Chapelle|拉夏贝尔,安徽省,滁州市,琅琊区,拉夏贝尔集合店(1912购物中心),琅琊区育新东路158号1912购物中心F2层,32.312789,118.309758,购物服务;服装鞋帽皮具店;品牌服装店,B0FFI2YO9V
323,La Chapelle|拉夏贝尔,安徽省,滁州市,南谯区,LA CHAPELLE服装店,南谯区金鹏99广场1楼,32.254559,118.311554,购物服务;购物相关场所;购物相关场所,B0FFJ11A5A
324,La Chapelle|拉夏贝尔,湖南省,永州市,冷水滩区,拉夏贝尔,冷水滩区0陵北路步步高百货永州店2层,26.449140,111.602130,购物服务;专卖店;专营店,B0FFFZ9795
325,La Chapelle|拉夏贝尔,湖南省,永州市,冷水滩区,拉夏贝尔专柜,冷水滩区零陵中路金水湾广场三楼,26.447579,111.596378,购物服务;购物相关场所;购物相关场所,B0FFIA57JK
326,La Chapelle|拉夏贝尔,湖南省,永州市,冷水滩区,La Chapelle,冷水滩区河东清桥路86号滨江友谊商业广场2层,26.434434,111.604353,购物服务;服装鞋帽皮具店;服装鞋帽皮具店,B0FFFZOR94
327,La Chapelle|拉夏贝尔,湖南省,永州市,冷水滩区,拉夏贝尔,冷水滩区0陵北路步步高百货永州店2层,26.449140,111.602130,购物服务;专卖店;专营店,B0FFFZ9795
328,La Chapelle|拉夏贝尔,湖南省,永州市,冷水滩区,拉夏贝尔专柜,冷水滩区零陵中路金水湾广场三楼,26.447579,111.596378,购物服务;购物相关场所;购物相关场所,B0FFIA57JK
329,La Chapelle|拉夏贝尔,湖南省,永州市,冷水滩区,La Chapelle,冷水滩区河东清桥路86号滨江友谊商业广场2层,26.434434,111.604353,购物服务;服装鞋帽皮具店;服装鞋帽皮具店,B0FFFZOR94
330,La Chapelle|拉夏贝尔,内蒙古自治区,锡林郭勒盟,锡林浩特市,拉夏贝尔集合店,锡林浩特市维多利二楼,43.941992,116.079426,购物服务;服装鞋帽皮具店;品牌服装店,B0FFI0XR9I
331,La Chapelle|拉夏贝尔,内蒙古自治区,锡林郭勒盟,锡林浩特市,La Chapelle,锡林浩特市额尔敦路20号民盛购物中心F2,43.938931,116.085446,购物服务;服装鞋帽皮具店;品牌服装店,B0FFG9NJTJ
332,La Chapelle|拉夏贝尔,内蒙古自治区,锡林郭勒盟,锡林浩特市,La Chapelle,锡林浩特市额尔敦路41号维多利广场F3,43.942226,116.079483,购物服务;服装鞋帽皮具店;品牌服装店,B0FFH2BTU6
333,La Chapelle|拉夏贝尔,内蒙古自治区,锡林郭勒盟,锡林浩特市,拉夏贝尔集合店,锡林浩特市维多利二楼,43.941992,116.079426,购物服务;服装鞋帽皮具店;品牌服装店,B0FFI0XR9I
334,La Chapelle|拉夏贝尔,内蒙古自治区,锡林郭勒盟,锡林浩特市,La Chapelle,锡林浩特市额尔敦路20号民盛购物中心F2,43.938931,116.085446,购物服务;服装鞋帽皮具店;品牌服装店,B0FFG9NJTJ
335,La Chapelle|拉夏贝尔,内蒙古自治区,锡林郭勒盟,锡林浩特市,La Chapelle,锡林浩特市额尔敦路41号维多利广场F3,43.942226,116.079483,购物服务;服装鞋帽皮具店;品牌服装店,B0FFH2BTU6
336,La Chapelle|拉夏贝尔,四川省,遂宁市,射洪县,拉夏贝尔7M专柜,射洪县汇星百货2楼,30.870719,105.383854,购物服务;购物相关场所;购物相关场所,B0FFJ3GFUI
337,La Chapelle|拉夏贝尔,四川省,遂宁市,船山区,La Chapelle,船山区东升路与香林南路交汇处遂宁万达广场,30.530235,105.596199,购物服务;服装鞋帽皮具店;品牌服装店,B0FFHCZYVZ
338,La Chapelle|拉夏贝尔,四川省,遂宁市,射洪县,拉夏贝尔7M专柜,射洪县汇星百货2楼,30.870719,105.383854,购物服务;购物相关场所;购物相关场所,B0FFJ3GFUI
339,La Chapelle|拉夏贝尔,四川省,遂宁市,船山区,La Chapelle,船山区东升路与香林南路交汇处遂宁万达广场,30.530235,105.596199,购物服务;服装鞋帽皮具店;品牌服装店,B0FFHCZYVZ
340,La Chapelle|拉夏贝尔,安徽省,淮南市,田家庵区,拉夏贝尔&集合馆(金地・环球港),田家庵区学院南路与朝阳中路交叉口北金地・环球港F1层,32.640053,117.010892,购物服务;购物相关场所;购物相关场所,B0FFI1QA6O
341,La Chapelle|拉夏贝尔,安徽省,淮南市,田家庵区,拉夏贝尔POTE男装特卖,田家庵区环球港一楼,32.640575,117.012123,购物服务;购物相关场所;购物相关场所,B0FFIR1XEA
342,La Chapelle|拉夏贝尔,安徽省,淮南市,田家庵区,拉夏贝尔US专柜,田家庵区商贸新世界一楼,32.640513,117.013691,购物服务;购物相关场所;购物相关场所,B0FFIAV0WO
343,La Chapelle|拉夏贝尔,安徽省,淮南市,田家庵区,La Chapelle(新世界店),田家庵区朝阳中路40号新世界休闲生活广场二楼,32.639379,117.014330,购物服务;服装鞋帽皮具店;品牌服装店,B0FFH1FYDB
344,La Chapelle|拉夏贝尔,安徽省,淮南市,田家庵区,la chapelle(金地・环球港),田家庵区学院南路与朝阳中路交叉口北金地・环球港F1层,32.640349,117.011146,购物服务;服装鞋帽皮具店;品牌服装店,B0FFI1QA6V
345,La Chapelle|拉夏贝尔,安徽省,淮南市,田家庵区,La Chapelle(南京新百购物中心),田家庵区龙湖北路2号南京新百购物中心F2层,32.646935,117.015399,购物服务;服装鞋帽皮具店;品牌服装店,B0FFG12JAS
346,La Chapelle|拉夏贝尔,安徽省,淮南市,田家庵区,拉夏贝尔&集合馆(金地・环球港),田家庵区学院南路与朝阳中路交叉口北金地・环球港F1层,32.640053,117.010892,购物服务;购物相关场所;购物相关场所,B0FFI1QA6O
347,La Chapelle|拉夏贝尔,安徽省,淮南市,田家庵区,拉夏贝尔POTE男装特卖,田家庵区环球港一楼,32.640575,117.012123,购物服务;购物相关场所;购物相关场所,B0FFIR1XEA
348,La Chapelle|拉夏贝尔,安徽省,淮南市,田家庵区,拉夏贝尔US专柜,田家庵区商贸新世界一楼,32.640513,117.013691,购物服务;购物相关场所;购物相关场所,B0FFIAV0WO
349,La Chapelle|拉夏贝尔,安徽省,淮南市,田家庵区,La Chapelle(新世界店),田家庵区朝阳中路40号新世界休闲生活广场二楼,32.639379,117.014330,购物服务;服装鞋帽皮具店;品牌服装店,B0FFH1FYDB
350,La Chapelle|拉夏贝尔,安徽省,淮南市,田家庵区,la chapelle(金地・环球港),田家庵区学院南路与朝阳中路交叉口北金地・环球港F1层,32.640349,117.011146,购物服务;服装鞋帽皮具店;品牌服装店,B0FFI1QA6V
351,La Chapelle|拉夏贝尔,安徽省,淮南市,田家庵区,La Chapelle(南京新百购物中心),田家庵区龙湖北路2号南京新百购物中心F2层,32.646935,117.015399,购物服务;服装鞋帽皮具店;品牌服装店,B0FFG12JAS
352,La Chapelle|拉夏贝尔,陕西省,咸阳市,秦都区,拉夏贝尔(咸阳国际财富中心),秦都区人民中路33号咸阳国际财富中心2F层,34.335174,108.707656,购物服务;服装鞋帽皮具店;品牌服装店,B0FFHITB98
353,La Chapelle|拉夏贝尔,陕西省,咸阳市,秦都区,拉夏贝尔7M专柜,秦都区世纪大道人人乐1楼,34.316280,108.721191,购物服务;购物相关场所;购物相关场所,B0FFIZG6G3
354,La Chapelle|拉夏贝尔,陕西省,咸阳市,秦都区,La Chapelle,秦都区人民中路世纪金花4层(人民中路店),34.335830,108.715149,购物服务;服装鞋帽皮具店;品牌服装店,B0FFFDPKTJ
355,La Chapelle|拉夏贝尔,陕西省,咸阳市,渭城区,LA CHAPELLE KIDS,渭城区咸宋路与陵照转盘交叉口王府井赛特奥莱F2,34.396027,108.732146,购物服务;专卖店;专营店,B0FFID9NZ8
356,La Chapelle|拉夏贝尔,陕西省,咸阳市,渭城区,CANDIE'S,渭城区咸宋路与陵照转盘交叉口王府井赛特奥莱F2,34.395910,108.732184,购物服务;服装鞋帽皮具店;品牌服装店,B0FFIDDHSB
357,La Chapelle|拉夏贝尔,陕西省,咸阳市,秦都区,拉夏贝尔(咸阳国际财富中心),秦都区人民中路33号咸阳国际财富中心2F层,34.335174,108.707656,购物服务;服装鞋帽皮具店;品牌服装店,B0FFHITB98
358,La Chapelle|拉夏贝尔,陕西省,咸阳市,秦都区,拉夏贝尔7M专柜,秦都区世纪大道人人乐1楼,34.316280,108.721191,购物服务;购物相关场所;购物相关场所,B0FFIZG6G3
359,La Chapelle|拉夏贝尔,陕西省,咸阳市,秦都区,La Chapelle,秦都区人民中路世纪金花4层(人民中路店),34.335830,108.715149,购物服务;服装鞋帽皮具店;品牌服装店,B0FFFDPKTJ
360,La Chapelle|拉夏贝尔,陕西省,咸阳市,渭城区,LA CHAPELLE KIDS,渭城区咸宋路与陵照转盘交叉口王府井赛特奥莱F2,34.396027,108.732146,购物服务;专卖店;专营店,B0FFID9NZ8
361,La Chapelle|拉夏贝尔,陕西省,咸阳市,渭城区,CANDIE'S,渭城区咸宋路与陵照转盘交叉口王府井赛特奥莱F2,34.395910,108.732184,购物服务;服装鞋帽皮具店;品牌服装店,B0FFIDDHSB
362,La Chapelle|拉夏贝尔,辽宁省,沈阳市,铁西区,拉夏贝尔(茂业百货),铁西区沈辽东路79号茂业百货F3层,41.779908,123.361506,购物服务;服装鞋帽皮具店;品牌服装店,B0FFHMLV8Q
363,La Chapelle|拉夏贝尔,辽宁省,沈阳市,铁西区,拉夏贝尔(星摩尔店),铁西区景星街北二路星摩尔商场一楼,41.808810,123.376470,购物服务;服装鞋帽皮具店;品牌服装店,B0FFIQGQ6L
364,La Chapelle|拉夏贝尔,辽宁省,沈阳市,沈北新区,拉夏贝尔(积家店),沈北新区道义南大街33号积家购物中心F2层,41.921394,123.400443,购物服务;服装鞋帽皮具店;品牌服装店,B0FFHHPZGW
365,La Chapelle|拉夏贝尔,辽宁省,沈阳市,沈河区,拉夏贝尔运动(沈阳商业城),沈河区中街路212号沈阳商业城F3层,41.801967,123.462501,购物服务;服装鞋帽皮具店;品牌服装店,B0FFHU737M
366,La Chapelle|拉夏贝尔,辽宁省,沈阳市,沈河区,La Chapelle,沈河区文化路139号玛莎・银座1层,41.770462,123.454765,购物服务;服装鞋帽皮具店;服装鞋帽皮具店,B00181BF13
367,La Chapelle|拉夏贝尔,辽宁省,沈阳市,沈河区,La Chapelle,沈河区中街路115号兴隆大家庭F3层,41.799953,123.454929,购物服务;服装鞋帽皮具店;品牌服装店,B0FFHMLYAA
368,La Chapelle|拉夏贝尔,辽宁省,沈阳市,沈河区,La Chapelle(沈阳百联购物中心),沈河区青年大街55号沈阳百联购物中心F2层,41.793721,123.433249,购物服务;服装鞋帽皮具店;品牌服装店|购物服务;服装鞋帽皮具店;品牌鞋店,B00181BKI0
369,La Chapelle|拉夏贝尔,辽宁省,沈阳市,沈河区,La Chapelle(中街路店),沈河区中街路128号66皇城恒隆广场L3层306,41.802839,123.455232,购物服务;服装鞋帽皮具店;品牌服装店,B0FFHDU131
370,La Chapelle|拉夏贝尔,辽宁省,沈阳市,铁西区,La Chapelle(万达广场),铁西区北一中路1号万达广场1-2层,41.812931,123.381186,购物服务;服装鞋帽皮具店;品牌服装店,B00181F97A
371,La Chapelle|拉夏贝尔,辽宁省,沈阳市,皇姑区,La Chapelle(乐天百货),皇姑区歧山东路9-4号乐天百货F3层,41.822887,123.430101,购物服务;服装鞋帽皮具店;品牌服装店,B0FFH7IEJT
372,La Chapelle|拉夏贝尔,辽宁省,沈阳市,于洪区,La Chapelle(新玛特),于洪区黄海路45号于洪新玛特2楼,41.793512,123.304963,购物服务;服装鞋帽皮具店;品牌服装店,B0FFHTNVSA
373,La Chapelle|拉夏贝尔,辽宁省,沈阳市,和平区,La Chapelle(新世界百货),和平区中华路88号新世界百货F3层,41.791762,123.403338,购物服务;服装鞋帽皮具店;品牌服装店,B0FFGAEK12
374,La Chapelle|拉夏贝尔,辽宁省,沈阳市,铁西区,La Chapelle(新玛特铁西店),铁西区兴华南街37号新玛特(铁西店)F2层,41.788498,123.367752,购物服务;服装鞋帽皮具店;品牌服装店,B0FFH26AQA
375,La Chapelle|拉夏贝尔,辽宁省,沈阳市,和平区,La Chapelle(欧亚沈阳联营公司),和平区中华路63号欧亚沈阳联营公司F5层,41.789142,123.405196,购物服务;服装鞋帽皮具店;品牌服装店,B0FFG215PV
376,La Chapelle|拉夏贝尔,辽宁省,沈阳市,沈河区,La Chapelle SPORT(沈阳百联购物中心),沈河区青年大街55号沈阳百联购物中心F2层,41.793869,123.432936,购物服务;服装鞋帽皮具店;品牌服装店,B0FFHLH570
377,La Chapelle|拉夏贝尔,辽宁省,沈阳市,和平区,La Chapelle SPORT(欧亚沈阳联营公司),和平区中华路63号欧亚沈阳联营公司F5层,41.789080,123.405149,购物服务;服装鞋帽皮具店;品牌服装店,B0FFHVTCQ4
378,La Chapelle|拉夏贝尔,辽宁省,沈阳市,沈北新区,La Chapelle SPORT(积家购物中心),沈北新区道义南大街33号积家购物中心F2层,41.921584,123.400633,购物服务;服装鞋帽皮具店;品牌服装店,B0FFFFGGNW
379,La Chapelle|拉夏贝尔,辽宁省,沈阳市,大东区,La Babite&La Chapelle(大悦城),大东区小东路6-1号大悦城3F层A310,41.802752,123.467728,购物服务;服装鞋帽皮具店;品牌服装店,B0FFFW9ESB
380,La Chapelle|拉夏贝尔,辽宁省,沈阳市,铁西区,Candie's(铁西万达广场),铁西区兴华南街58-20号铁西万达广场F2层211-212,41.781802,123.358867,购物服务;服装鞋帽皮具店;品牌服装店,B0FFG7N1EO
381,La Chapelle|拉夏贝尔,辽宁省,沈阳市,沈河区,拉夏贝尔女装,沈河区哈尔滨路118号华府购物中心1F,41.812534,123.432163,购物服务;购物相关场所;购物相关场所,B0FFHE9GWT
382,La Chapelle|拉夏贝尔,辽宁省,沈阳市,铁西区,拉夏贝尔(茂业百货),铁西区沈辽东路79号茂业百货F3层,41.779908,123.361506,购物服务;服装鞋帽皮具店;品牌服装店,B0FFHMLV8Q
383,La Chapelle|拉夏贝尔,辽宁省,沈阳市,铁西区,拉夏贝尔(星摩尔店),铁西区景星街北二路星摩尔商场一楼,41.808810,123.376470,购物服务;服装鞋帽皮具店;品牌服装店,B0FFIQGQ6L
384,La Chapelle|拉夏贝尔,辽宁省,沈阳市,沈北新区,拉夏贝尔(积家店),沈北新区道义南大街33号积家购物中心F2层,41.921394,123.400443,购物服务;服装鞋帽皮具店;品牌服装店,B0FFHHPZGW
385,La Chapelle|拉夏贝尔,辽宁省,沈阳市,沈河区,拉夏贝尔运动(沈阳商业城),沈河区中街路212号沈阳商业城F3层,41.801967,123.462501,购物服务;服装鞋帽皮具店;品牌服装店,B0FFHU737M
386,La Chapelle|拉夏贝尔,辽宁省,沈阳市,沈河区,La Chapelle,沈河区文化路139号玛莎・银座1层,41.770462,123.454765,购物服务;服装鞋帽皮具店;服装鞋帽皮具店,B00181BF13
387,La Chapelle|拉夏贝尔,辽宁省,沈阳市,沈河区,La Chapelle,沈河区中街路115号兴隆大家庭F3层,41.799953,123.454929,购物服务;服装鞋帽皮具店;品牌服装店,B0FFHMLYAA
388,La Chapelle|拉夏贝尔,辽宁省,沈阳市,沈河区,La Chapelle(沈阳百联购物中心),沈河区青年大街55号沈阳百联购物中心F2层,41.793721,123.433249,购物服务;服装鞋帽皮具店;品牌服装店|购物服务;服装鞋帽皮具店;品牌鞋店,B00181BKI0
389,La Chapelle|拉夏贝尔,辽宁省,沈阳市,沈河区,La Chapelle(中街路店),沈河区中街路128号66皇城恒隆广场L3层306,41.802839,123.455232,购物服务;服装鞋帽皮具店;品牌服装店,B0FFHDU131
390,La Chapelle|拉夏贝尔,辽宁省,沈阳市,铁西区,La Chapelle(万达广场),铁西区北一中路1号万达广场1-2层,41.812931,123.381186,购物服务;服装鞋帽皮具店;品牌服装店,B00181F97A
391,La Chapelle|拉夏贝尔,辽宁省,沈阳市,皇姑区,La Chapelle(乐天百货),皇姑区歧山东路9-4号乐天百货F3层,41.822887,123.430101,购物服务;服装鞋帽皮具店;品牌服装店,B0FFH7IEJT
392,La Chapelle|拉夏贝尔,辽宁省,沈阳市,于洪区,La Chapelle(新玛特),于洪区黄海路45号于洪新玛特2楼,41.793512,123.304963,购物服务;服装鞋帽皮具店;品牌服装店,B0FFHTNVSA
393,La Chapelle|拉夏贝尔,辽宁省,沈阳市,和平区,La Chapelle(新世界百货),和平区中华路88号新世界百货F3层,41.791762,123.403338,购物服务;服装鞋帽皮具店;品牌服装店,B0FFGAEK12
394,La Chapelle|拉夏贝尔,辽宁省,沈阳市,铁西区,La Chapelle(新玛特铁西店),铁西区兴华南街37号新玛特(铁西店)F2层,41.788498,123.367752,购物服务;服装鞋帽皮具店;品牌服装店,B0FFH26AQA
395,La Chapelle|拉夏贝尔,辽宁省,沈阳市,和平区,La Chapelle(欧亚沈阳联营公司),和平区中华路63号欧亚沈阳联营公司F5层,41.789142,123.405196,购物服务;服装鞋帽皮具店;品牌服装店,B0FFG215PV
396,La Chapelle|拉夏贝尔,辽宁省,沈阳市,沈河区,La Chapelle SPORT(沈阳百联购物中心),沈河区青年大街55号沈阳百联购物中心F2层,41.793869,123.432936,购物服务;服装鞋帽皮具店;品牌服装店,B0FFHLH570
397,La Chapelle|拉夏贝尔,辽宁省,沈阳市,和平区,La Chapelle SPORT(欧亚沈阳联营公司),和平区中华路63号欧亚沈阳联营公司F5层,41.789080,123.405149,购物服务;服装鞋帽皮具店;品牌服装店,B0FFHVTCQ4
398,La Chapelle|拉夏贝尔,辽宁省,沈阳市,沈北新区,La Chapelle SPORT(积家购物中心),沈北新区道义南大街33号积家购物中心F2层,41.921584,123.400633,购物服务;服装鞋帽皮具店;品牌服装店,B0FFFFGGNW
399,La Chapelle|拉夏贝尔,辽宁省,沈阳市,大东区,La Babite&La Chapelle(大悦城),大东区小东路6-1号大悦城3F层A310,41.802752,123.467728,购物服务;服装鞋帽皮具店;品牌服装店,B0FFFW9ESB
400,La Chapelle|拉夏贝尔,辽宁省,沈阳市,铁西区,Candie's(铁西万达广场),铁西区兴华南街58-20号铁西万达广场F2层211-212,41.781802,123.358867,购物服务;服装鞋帽皮具店;品牌服装店,B0FFG7N1EO
401,La Chapelle|拉夏贝尔,辽宁省,沈阳市,沈河区,拉夏贝尔女装,沈河区哈尔滨路118号华府购物中心1F,41.812534,123.432163,购物服务;购物相关场所;购物相关场所,B0FFHE9GWT
402,La Chapelle|拉夏贝尔,辽宁省,沈阳市,铁西区,Laetia(星摩尔沈阳购物广场),铁西区北二中路6号星摩尔沈阳购物广场1F层G107,41.809269,123.375122,购物服务;服装鞋帽皮具店;品牌服装店,B0FFG2P2GB
403,La Chapelle|拉夏贝尔,内蒙古自治区,阿拉善盟,阿拉善左旗,拉夏贝儿女装,阿拉善左旗巴彦浩特镇天盛广场二楼,38.837970,105.679130,购物服务;购物相关场所;购物相关场所,B0FFIFXXB0
404,La Chapelle|拉夏贝尔,内蒙古自治区,阿拉善盟,阿拉善左旗,拉夏贝儿女装,阿拉善左旗巴彦浩特镇天盛广场二楼,38.837970,105.679130,购物服务;购物相关场所;购物相关场所,B0FFIFXXB0
405,La Chapelle|拉夏贝尔,甘肃省,兰州市,城关区,拉夏贝尔(西单商场兰州店),城关区临夏路5号西单商场(兰州店)F4层,36.058297,103.817047,购物服务;服装鞋帽皮具店;品牌服装店,B0FFHVUUAL
406,La Chapelle|拉夏贝尔,甘肃省,兰州市,城关区,拉夏贝尔(王府井百货),城关区东岗东路1999号王府井百货F2层,36.042418,103.872717,购物服务;服装鞋帽皮具店;品牌服装店,B0FFFFAP7R
407,La Chapelle|拉夏贝尔,甘肃省,兰州市,永登县,拉夏贝尔专柜,永登县城关镇胜利街西太华负一楼,36.725044,103.267057,购物服务;购物相关场所;购物相关场所,B0FFIBDV9M
408,La Chapelle|拉夏贝尔,甘肃省,兰州市,西固区,拉夏贝尔US店,西固区西固城街道玉门街新宏盛一楼,36.096976,103.622241,购物服务;购物相关场所;购物相关场所,B0FFI13JMQ
409,La Chapelle|拉夏贝尔,甘肃省,兰州市,城关区,La Chapelle(北京华联东方红一店),城关区天水北路万达广场3层,36.063490,103.861670,购物服务;服装鞋帽皮具店;品牌服装店,B0FFHDA61Z
410,La Chapelle|拉夏贝尔,甘肃省,兰州市,城关区,La Chapelle,城关区南昌路982号北京华联2层(南昌路店),36.055761,103.845424,购物服务;服装鞋帽皮具店;品牌服装店,B0FFH291ZY
411,La Chapelle|拉夏贝尔,甘肃省,兰州市,城关区,LA CHAPELLE HOMME,城关区南昌路982号附近,36.055761,103.845424,购物服务;服装鞋帽皮具店;品牌服装店,B0FFHQOM3B
412,La Chapelle|拉夏贝尔,甘肃省,兰州市,城关区,La Chapelle SPORT,城关区平凉路677号北京华联东方红购物中心F2,36.055761,103.845424,购物服务;服装鞋帽皮具店;品牌服装店,B0FFHQOM3G
413,La Chapelle|拉夏贝尔,甘肃省,兰州市,城关区,拉夏贝尔(西单商场兰州店),城关区临夏路5号西单商场(兰州店)F4层,36.058297,103.817047,购物服务;服装鞋帽皮具店;品牌服装店,B0FFHVUUAL
414,La Chapelle|拉夏贝尔,甘肃省,兰州市,城关区,拉夏贝尔(王府井百货),城关区东岗东路1999号王府井百货F2层,36.042418,103.872717,购物服务;服装鞋帽皮具店;品牌服装店,B0FFFFAP7R
415,La Chapelle|拉夏贝尔,甘肃省,兰州市,永登县,拉夏贝尔专柜,永登县城关镇胜利街西太华负一楼,36.725044,103.267057,购物服务;购物相关场所;购物相关场所,B0FFIBDV9M
416,La Chapelle|拉夏贝尔,甘肃省,兰州市,西固区,拉夏贝尔US店,西固区西固城街道玉门街新宏盛一楼,36.096976,103.622241,购物服务;购物相关场所;购物相关场所,B0FFI13JMQ
417,La Chapelle|拉夏贝尔,甘肃省,兰州市,城关区,La Chapelle(北京华联东方红一店),城关区天水北路万达广场3层,36.063490,103.861670,购物服务;服装鞋帽皮具店;品牌服装店,B0FFHDA61Z
418,La Chapelle|拉夏贝尔,甘肃省,兰州市,城关区,La Chapelle,城关区南昌路982号北京华联2层(南昌路店),36.055761,103.845424,购物服务;服装鞋帽皮具店;品牌服装店,B0FFH291ZY
419,La Chapelle|拉夏贝尔,甘肃省,兰州市,城关区,LA CHAPELLE HOMME,城关区南昌路982号附近,36.055761,103.845424,购物服务;服装鞋帽皮具店;品牌服装店,B0FFHQOM3B
420,La Chapelle|拉夏贝尔,甘肃省,兰州市,城关区,La Chapelle SPORT,城关区平凉路677号北京华联东方红购物中心F2,36.055761,103.845424,购物服务;服装鞋帽皮具店;品牌服装店,B0FFHQOM3G
421,La Chapelle|拉夏贝尔,甘肃省,嘉峪关市,嘉峪关市,La Chapelle(东方百盛城市购物广场),嘉峪关市新华北路12号东方百盛城市购物广场3层,39.802480,98.269127,购物服务;服装鞋帽皮具店;品牌服装店,B0FFG9X6V6
422,La Chapelle|拉夏贝尔,甘肃省,嘉峪关市,嘉峪关市,拉夏贝儿,嘉峪关市东方百盛二楼,39.802446,98.269020,购物服务;购物相关场所;购物相关场所,B0FFHJLQO9
423,La Chapelle|拉夏贝尔,甘肃省,嘉峪关市,嘉峪关市,La Chapelle(东方百盛城市购物广场),嘉峪关市新华北路12号东方百盛城市购物广场3层,39.802480,98.269127,购物服务;服装鞋帽皮具店;品牌服装店,B0FFG9X6V6
424,La Chapelle|拉夏贝尔,甘肃省,嘉峪关市,嘉峪关市,拉夏贝儿,嘉峪关市东方百盛二楼,39.802446,98.269020,购物服务;购物相关场所;购物相关场所,B0FFHJLQO9
425,La Chapelle|拉夏贝尔,广东省,江门市,蓬江区,拉夏贝尔(江门奥园广场),蓬江区发展大道与丰乐路交汇处江门奥园广场,22.615997,113.092528,购物服务;服装鞋帽皮具店;品牌服装店,B0FFIPHN4M
426,La Chapelle|拉夏贝尔,广东省,江门市,蓬江区,拉夏贝尔(汇悦城),蓬江区白石大道166号汇悦城F1层,22.612075,113.082051,购物服务;服装鞋帽皮具店;品牌服装店,B0FFG1PPVT
427,La Chapelle|拉夏贝尔,广东省,江门市,蓬江区,La Chapelle,蓬江区江会路人人乐百货一楼,22.568196,113.082209,购物服务;服装鞋帽皮具店;品牌服装店,B0FFGBZ1NO
428,La Chapelle|拉夏贝尔,广东省,江门市,蓬江区,拉夏贝尔(江门奥园广场),蓬江区发展大道与丰乐路交汇处江门奥园广场,22.615997,113.092528,购物服务;服装鞋帽皮具店;品牌服装店,B0FFIPHN4M
429,La Chapelle|拉夏贝尔,广东省,江门市,蓬江区,拉夏贝尔(汇悦城),蓬江区白石大道166号汇悦城F1层,22.612075,113.082051,购物服务;服装鞋帽皮具店;品牌服装店,B0FFG1PPVT
430,La Chapelle|拉夏贝尔,广东省,江门市,蓬江区,La Chapelle,蓬江区江会路人人乐百货一楼,22.568196,113.082209,购物服务;服装鞋帽皮具店;品牌服装店,B0FFGBZ1NO
431,La Chapelle|拉夏贝尔,山东省,菏泽市,成武县,拉夏贝尔店,成武县银座商城二楼,34.958614,115.868813,购物服务;购物相关场所;购物相关场所,B0FFIWR6RZ
432,La Chapelle|拉夏贝尔,山东省,菏泽市,曹县,La Chapelle(银座商城店),曹县青荷南路99号银座商城二楼,34.841652,115.551413,购物服务;服装鞋帽皮具店;品牌服装店,B0FFH2S959
433,La Chapelle|拉夏贝尔,山东省,菏泽市,牡丹区,Candie's,牡丹区和平路新苏天美二楼拉夏贝尔candies,35.230147,115.485076,购物服务;服装鞋帽皮具店;品牌服装店,B0FFFDIGM2
434,La Chapelle|拉夏贝尔,山东省,菏泽市,成武县,拉夏贝尔店,成武县银座商城二楼,34.958614,115.868813,购物服务;购物相关场所;购物相关场所,B0FFIWR6RZ
435,La Chapelle|拉夏贝尔,山东省,菏泽市,曹县,La Chapelle(银座商城店),曹县青荷南路99号银座商城二楼,34.841652,115.551413,购物服务;服装鞋帽皮具店;品牌服装店,B0FFH2S959
436,La Chapelle|拉夏贝尔,山东省,菏泽市,牡丹区,Candie's,牡丹区和平路新苏天美二楼拉夏贝尔candies,35.230147,115.485076,购物服务;服装鞋帽皮具店;品牌服装店,B0FFFDIGM2
437,La Chapelle|拉夏贝尔,湖南省,郴州市,北湖区,Candie's,北湖区国庆北路19号友谊中皇城3层,25.797505,113.030750,购物服务;服装鞋帽皮具店;品牌服装店,B0FFG1TYO2
438,La Chapelle|拉夏贝尔,湖南省,郴州市,北湖区,Candie's,北湖区国庆北路19号友谊中皇城3层,25.797505,113.030750,购物服务;服装鞋帽皮具店;品牌服装店,B0FFG1TYO2
439,La Chapelle|拉夏贝尔,湖北省,宜昌市,伍家岗区,拉夏贝尔(万达广场),伍家岗区沿江大道特166号万达广场F2层,30.680915,111.306824,购物服务;服装鞋帽皮具店;品牌服装店,B0FFHW8523
440,La Chapelle|拉夏贝尔,湖北省,宜昌市,枝江市,拉夏贝尔(国贸大厦B栋),枝江市民主大道36号国贸大厦B栋F2层,30.425050,111.756193,购物服务;服装鞋帽皮具店;品牌服装店,B0FFH37RMT
441,La Chapelle|拉夏贝尔,湖北省,宜昌市,西陵区,拉夏贝尔男装,西陵区发展大道13号水悦城购物中心三楼,30.706381,111.316185,购物服务;服装鞋帽皮具店;服装鞋帽皮具店,B0FFJ12EJ5
442,La Chapelle|拉夏贝尔,湖北省,宜昌市,枝江市,拉夏贝尔特卖会(国贸大厦B栋),枝江市民主大道36号国贸大厦B栋F2层,30.424956,111.756086,购物服务;购物相关场所;购物相关场所,B0FFHYJJHB
443,La Chapelle|拉夏贝尔,湖北省,宜昌市,西陵区,"拉夏运动,拉夏贝尔(时代购物广场)",西陵区解放路52号时代购物广场F3层,30.697575,111.285236,购物服务;购物相关场所;购物相关场所,B0FFHW86P8
444,La Chapelle|拉夏贝尔,湖北省,宜昌市,西陵区,La Chapelle(水悦城购物中心),西陵区发展大道13号水悦城购物中心F2层,30.706725,111.316322,购物服务;服装鞋帽皮具店;品牌服装店,B0FFI6DZRB
445,La Chapelle|拉夏贝尔,湖北省,宜昌市,西陵区,La Chapelle(水悦城购物中心),西陵区发展大道13号水悦城购物中心F1层,30.706395,111.315809,购物服务;服装鞋帽皮具店;品牌服装店,B0FFFVU0N1
446,La Chapelle|拉夏贝尔,湖北省,宜昌市,伍家岗区,La Chape le(万达广场),伍家岗区沿江大道特166号万达广场F1层,30.680462,111.307949,购物服务;购物相关场所;购物相关场所,B0FFHW850A
447,La Chapelle|拉夏贝尔,湖北省,宜昌市,伍家岗区,Candies(万达广场),伍家岗区沿江大道特166号万达广场万达百货1层136-138,30.680569,111.307798,购物服务;服装鞋帽皮具店;品牌服装店,B02CD0RBDO
448,La Chapelle|拉夏贝尔,湖北省,宜昌市,伍家岗区,Candie's,伍家岗区6-30号桔城路国贸新天地2楼,30.648274,111.361226,购物服务;服装鞋帽皮具店;品牌服装店,B0FFH1LKJR
449,La Chapelle|拉夏贝尔,湖北省,宜昌市,西陵区,Candies(时代购物广场),西陵区解放路52号时代购物广场F3层,30.697989,111.285420,购物服务;服装鞋帽皮具店;品牌服装店,B0FFGSPRJ9
450,La Chapelle|拉夏贝尔,湖北省,宜昌市,西陵区,拉夏贝儿专厅,西陵区夷陵大道72号丹尼斯三楼,30.702051,111.291870,购物服务;购物相关场所;购物相关场所,B0FFIAP3S6
451,La Chapelle|拉夏贝尔,湖北省,宜昌市,西陵区,拉夏贝儿集合店,西陵区水悦城2楼,30.706244,111.316261,购物服务;购物相关场所;购物相关场所,B0FFIPIGS5
452,La Chapelle|拉夏贝尔,湖北省,宜昌市,伍家岗区,拉夏贝尔(万达广场),伍家岗区沿江大道特166号万达广场F2层,30.680915,111.306824,购物服务;服装鞋帽皮具店;品牌服装店,B0FFHW8523
453,La Chapelle|拉夏贝尔,湖北省,宜昌市,枝江市,拉夏贝尔(国贸大厦B栋),枝江市民主大道36号国贸大厦B栋F2层,30.425050,111.756193,购物服务;服装鞋帽皮具店;品牌服装店,B0FFH37RMT
454,La Chapelle|拉夏贝尔,湖北省,宜昌市,西陵区,拉夏贝尔男装,西陵区发展大道13号水悦城购物中心三楼,30.706381,111.316185,购物服务;服装鞋帽皮具店;服装鞋帽皮具店,B0FFJ12EJ5
455,La Chapelle|拉夏贝尔,湖北省,宜昌市,枝江市,拉夏贝尔特卖会(国贸大厦B栋),枝江市民主大道36号国贸大厦B栋F2层,30.424956,111.756086,购物服务;购物相关场所;购物相关场所,B0FFHYJJHB
456,La Chapelle|拉夏贝尔,湖北省,宜昌市,西陵区,"拉夏运动,拉夏贝尔(时代购物广场)",西陵区解放路52号时代购物广场F3层,30.697575,111.285236,购物服务;购物相关场所;购物相关场所,B0FFHW86P8
457,La Chapelle|拉夏贝尔,湖北省,宜昌市,西陵区,La Chapelle(水悦城购物中心),西陵区发展大道13号水悦城购物中心F2层,30.706725,111.316322,购物服务;服装鞋帽皮具店;品牌服装店,B0FFI6DZRB
458,La Chapelle|拉夏贝尔,湖北省,宜昌市,西陵区,La Chapelle(水悦城购物中心),西陵区发展大道13号水悦城购物中心F1层,30.706395,111.315809,购物服务;服装鞋帽皮具店;品牌服装店,B0FFFVU0N1
459,La Chapelle|拉夏贝尔,湖北省,宜昌市,伍家岗区,La Chape le(万达广场),伍家岗区沿江大道特166号万达广场F1层,30.680462,111.307949,购物服务;购物相关场所;购物相关场所,B0FFHW850A
460,La Chapelle|拉夏贝尔,湖北省,宜昌市,伍家岗区,Candies(万达广场),伍家岗区沿江大道特166号万达广场万达百货1层136-138,30.680569,111.307798,购物服务;服装鞋帽皮具店;品牌服装店,B02CD0RBDO
461,La Chapelle|拉夏贝尔,湖北省,宜昌市,伍家岗区,Candie's,伍家岗区6-30号桔城路国贸新天地2楼,30.648274,111.361226,购物服务;服装鞋帽皮具店;品牌服装店,B0FFH1LKJR
462,La Chapelle|拉夏贝尔,湖北省,宜昌市,西陵区,Candies(时代购物广场),西陵区解放路52号时代购物广场F3层,30.697989,111.285420,购物服务;服装鞋帽皮具店;品牌服装店,B0FFGSPRJ9
463,La Chapelle|拉夏贝尔,湖北省,宜昌市,西陵区,拉夏贝儿专厅,西陵区夷陵大道72号丹尼斯三楼,30.702051,111.291870,购物服务;购物相关场所;购物相关场所,B0FFIAP3S6
464,La Chapelle|拉夏贝尔,湖北省,宜昌市,西陵区,拉夏贝儿集合店,西陵区水悦城2楼,30.706244,111.316261,购物服务;购物相关场所;购物相关场所,B0FFIPIGS5
465,La Chapelle|拉夏贝尔,新疆维吾尔自治区,昌吉回族自治州,昌吉市,拉夏贝尔专柜,昌吉市建国路街道建国西路友好时尚购物中心二楼,44.015511,87.260117,购物服务;购物相关场所;购物相关场所,B0FFINNDIW
466,La Chapelle|拉夏贝尔,新疆维吾尔自治区,昌吉回族自治州,昌吉市,拉夏贝尔专柜,昌吉市建国路街道建国西路友好时尚购物中心二楼,44.015511,87.260117,购物服务;购物相关场所;购物相关场所,B0FFINNDIW
467,La Chapelle|拉夏贝尔,湖北省,荆门市,掇刀区,La Chapelle,掇刀区象山大道南端38号万达广场1层,30.983036,112.185665,购物服务;服装鞋帽皮具店;品牌服装店,B0FFHS9SWD
468,La Chapelle|拉夏贝尔,湖北省,荆门市,钟祥市,La Chapelle,钟祥市王府大道中百广场2楼,31.177325,112.588968,购物服务;服装鞋帽皮具店;品牌服装店,B0FFGJLDRJ
469,La Chapelle|拉夏贝尔,湖北省,荆门市,沙洋县,LaChapelle,沙洋县平湖路东方百货2楼,30.697871,112.586974,购物服务;服装鞋帽皮具店;品牌服装店,B0FFGJL7O0
470,La Chapelle|拉夏贝尔,湖北省,荆门市,东宝区,JACKWALK,东宝区中商百货4楼拉夏贝尔,31.029404,112.200195,购物服务;服装鞋帽皮具店;品牌服装店,B0FFJ2SZN2
471,La Chapelle|拉夏贝尔,湖北省,荆门市,掇刀区,La Chapelle,掇刀区象山大道南端38号万达广场1层,30.983036,112.185665,购物服务;服装鞋帽皮具店;品牌服装店,B0FFHS9SWD
472,La Chapelle|拉夏贝尔,湖北省,荆门市,钟祥市,La Chapelle,钟祥市王府大道中百广场2楼,31.177325,112.588968,购物服务;服装鞋帽皮具店;品牌服装店,B0FFGJLDRJ
473,La Chapelle|拉夏贝尔,湖北省,荆门市,沙洋县,LaChapelle,沙洋县平湖路东方百货2楼,30.697871,112.586974,购物服务;服装鞋帽皮具店;品牌服装店,B0FFGJL7O0
474,La Chapelle|拉夏贝尔,湖北省,荆门市,东宝区,JACKWALK,东宝区中商百货4楼拉夏贝尔,31.029404,112.200195,购物服务;服装鞋帽皮具店;品牌服装店,B0FFJ2SZN2
475,La Chapelle|拉夏贝尔,新疆维吾尔自治区,伊犁哈萨克自治州,伊宁市,拉夏贝尔男装,伊宁市边境经济合作区管委会山东路新茂业国际购物中心二楼,43.924454,81.277771,购物服务;服装鞋帽皮具店;服装鞋帽皮具店,B0FFJ2SUV0
476,La Chapelle|拉夏贝尔,新疆维吾尔自治区,伊犁哈萨克自治州,伊宁市,拉夏贝尔集合店,伊宁市万力时尚,43.921640,81.319581,购物服务;服装鞋帽皮具店;品牌服装店,B0FFIEJW4T
477,La Chapelle|拉夏贝尔,新疆维吾尔自治区,伊犁哈萨克自治州,伊宁市,La Chapelle,伊宁市军垦路3号阳光时代3层,43.926460,81.307750,购物服务;服装鞋帽皮具店;品牌服装店,B0FFH8O4JK
478,La Chapelle|拉夏贝尔,新疆维吾尔自治区,伊犁哈萨克自治州,伊宁市,拉夏贝尔男装,伊宁市边境经济合作区管委会山东路新茂业国际购物中心二楼,43.924454,81.277771,购物服务;服装鞋帽皮具店;服装鞋帽皮具店,B0FFJ2SUV0
479,La Chapelle|拉夏贝尔,新疆维吾尔自治区,伊犁哈萨克自治州,伊宁市,拉夏贝尔集合店,伊宁市万力时尚,43.921640,81.319581,购物服务;服装鞋帽皮具店;品牌服装店,B0FFIEJW4T
480,La Chapelle|拉夏贝尔,新疆维吾尔自治区,伊犁哈萨克自治州,伊宁市,La Chapelle,伊宁市军垦路3号阳光时代3层,43.926460,81.307750,购物服务;服装鞋帽皮具店;品牌服装店,B0FFH8O4JK
481,La Chapelle|拉夏贝尔,湖北省,荆州市,监利县,拉夏贝尔专柜,监利县中百二楼女服,29.542936,112.945839,购物服务;购物相关场所;购物相关场所,B0FFIY7L8V
482,La Chapelle|拉夏贝尔,湖北省,荆州市,监利县,拉夏贝尔专柜,监利县容城大道90号中百百货2楼,29.815571,112.905176,购物服务;购物相关场所;购物相关场所,B0FFGBT63N
483,La Chapelle|拉夏贝尔,湖北省,荆州市,沙市区,拉夏贝尔POTE专柜,沙市区北京中路安良百货五楼,30.306520,112.255760,购物服务;购物相关场所;购物相关场所,B0FFIPIXDJ
484,La Chapelle|拉夏贝尔,湖北省,荆州市,荆州区,拉夏贝尔US专柜,荆州区万达一楼,30.338072,112.224098,购物服务;购物相关场所;购物相关场所,B0FFJ0FMTI
485,La Chapelle|拉夏贝尔,湖北省,荆州市,监利县,拉夏贝尔专柜,监利县中百二楼女服,29.542936,112.945839,购物服务;购物相关场所;购物相关场所,B0FFIY7L8V
486,La Chapelle|拉夏贝尔,湖北省,荆州市,监利县,拉夏贝尔专柜,监利县容城大道90号中百百货2楼,29.815571,112.905176,购物服务;购物相关场所;购物相关场所,B0FFGBT63N
487,La Chapelle|拉夏贝尔,湖北省,荆州市,沙市区,拉夏贝尔POTE专柜,沙市区北京中路安良百货五楼,30.306520,112.255760,购物服务;购物相关场所;购物相关场所,B0FFIPIXDJ
488,La Chapelle|拉夏贝尔,湖北省,荆州市,荆州区,拉夏贝尔US专柜,荆州区万达一楼,30.338072,112.224098,购物服务;购物相关场所;购物相关场所,B0FFJ0FMTI
489,La Chapelle|拉夏贝尔,广东省,汕头市,龙湖区,拉夏贝尔(星湖商业城),龙湖区金砂东路179号星湖商业城B1层,23.367101,116.750248,购物服务;服装鞋帽皮具店;品牌服装店,B0FFHUO5VE
490,La Chapelle|拉夏贝尔,广东省,汕头市,龙湖区,La Chapelle(星湖商业城),龙湖区金砂东路179号星湖商业城F2层,23.367299,116.749443,购物服务;服装鞋帽皮具店;品牌服装店,B0FFI036VA
491,La Chapelle|拉夏贝尔,广东省,汕头市,龙湖区,La Chapelle(苏宁广场店),龙湖区金霞街道长平路苏宁广场三楼,23.361187,116.716739,购物服务;服装鞋帽皮具店;品牌服装店,B0FFHDBZFQ
492,La Chapelle|拉夏贝尔,广东省,汕头市,龙湖区,拉夏贝尔(星湖商业城),龙湖区金砂东路179号星湖商业城B1层,23.367101,116.750248,购物服务;服装鞋帽皮具店;品牌服装店,B0FFHUO5VE
493,La Chapelle|拉夏贝尔,广东省,汕头市,龙湖区,La Chapelle(星湖商业城),龙湖区金砂东路179号星湖商业城F2层,23.367299,116.749443,购物服务;服装鞋帽皮具店;品牌服装店,B0FFI036VA
494,La Chapelle|拉夏贝尔,广东省,汕头市,龙湖区,La Chapelle(苏宁广场店),龙湖区金霞街道长平路苏宁广场三楼,23.361187,116.716739,购物服务;服装鞋帽皮具店;品牌服装店,B0FFHDBZFQ
495,La Chapelle|拉夏贝尔,海南省,海口市,龙华区,拉夏贝尔专柜,龙华区龙华一横路99号东方广场3楼,20.039147,110.337554,购物服务;购物相关场所;购物相关场所,B0FFIBOZUP
496,La Chapelle|拉夏贝尔,海南省,海口市,秀英区,La Chapelle(万达广场),秀英区海榆中线29号万达广场F1层,19.978843,110.277504,购物服务;服装鞋帽皮具店;品牌服装店,B0FFHJV8H8
497,La Chapelle|拉夏贝尔,海南省,海口市,龙华区,LaChapelle(新城吾悦广场店),龙华区迎宾大道18号新城吾悦广场1层室内步行街,19.977542,110.339146,购物服务;服装鞋帽皮具店;品牌服装店,B0FFHFBDT7
498,La Chapelle|拉夏贝尔,海南省,海口市,龙华区,拉夏贝尔专柜,龙华区龙华一横路99号东方广场3楼,20.039147,110.337554,购物服务;购物相关场所;购物相关场所,B0FFIBOZUP
499,La Chapelle|拉夏贝尔,海南省,海口市,秀英区,La Chapelle(万达广场),秀英区海榆中线29号万达广场F1层,19.978843,110.277504,购物服务;服装鞋帽皮具店;品牌服装店,B0FFHJV8H8
500,La Chapelle|拉夏贝尔,海南省,海口市,龙华区,LaChapelle(新城吾悦广场店),龙华区迎宾大道18号新城吾悦广场1层室内步行街,19.977542,110.339146,购物服务;服装鞋帽皮具店;品牌服装店,B0FFHFBDT7
501,La Chapelle|拉夏贝尔,湖北省,黄石市,大冶市,拉夏贝尔(中央商场),大冶市新冶大道38号中央商场F2层,30.109556,114.975988,购物服务;服装鞋帽皮具店;品牌服装店,B0FFGC743V
502,La Chapelle|拉夏贝尔,湖北省,黄石市,西塞山区,La Chapelle,西塞山区武汉路99号武商黄石购物中心3楼,30.206074,115.089345,购物服务;服装鞋帽皮具店;品牌服装店,B0FFGJLM5V
503,La Chapelle|拉夏贝尔,湖北省,黄石市,黄石港区,La Chapelle(黄石新百百货店),黄石港区黄石大道678号新百百货四楼,30.213386,115.090857,购物服务;服装鞋帽皮具店;品牌服装店,B0FFGPA8CA
504,La Chapelle|拉夏贝尔,湖北省,黄石市,大冶市,la chapelle sport,大冶市新冶大道38号中央商场2层,30.108935,114.975966,购物服务;服装鞋帽皮具店;品牌服装店,B0FFI73XVR
505,La Chapelle|拉夏贝尔,湖北省,黄石市,黄石港区,拉夏贝儿专柜,黄石港区中商百货2楼,30.211987,115.085777,购物服务;购物相关场所;购物相关场所,B0FFILXI5A
506,La Chapelle|拉夏贝尔,湖北省,黄石市,大冶市,拉夏贝尔(中央商场),大冶市新冶大道38号中央商场F2层,30.109556,114.975988,购物服务;服装鞋帽皮具店;品牌服装店,B0FFGC743V
507,La Chapelle|拉夏贝尔,湖北省,黄石市,西塞山区,La Chapelle,西塞山区武汉路99号武商黄石购物中心3楼,30.206074,115.089345,购物服务;服装鞋帽皮具店;品牌服装店,B0FFGJLM5V
508,La Chapelle|拉夏贝尔,湖北省,黄石市,黄石港区,La Chapelle(黄石新百百货店),黄石港区黄石大道678号新百百货四楼,30.213386,115.090857,购物服务;服装鞋帽皮具店;品牌服装店,B0FFGPA8CA
509,La Chapelle|拉夏贝尔,湖北省,黄石市,大冶市,la chapelle sport,大冶市新冶大道38号中央商场2层,30.108935,114.975966,购物服务;服装鞋帽皮具店;品牌服装店,B0FFI73XVR
510,La Chapelle|拉夏贝尔,湖北省,黄石市,黄石港区,拉夏贝儿专柜,黄石港区中商百货2楼,30.211987,115.085777,购物服务;购物相关场所;购物相关场所,B0FFILXI5A
511,La Chapelle|拉夏贝尔,山西省,临汾市,尧都区,拉夏贝尔PA,尧都区解放西路31号生龙国际时尚广场三楼,36.084579,111.523003,购物服务;购物相关场所;购物相关场所,B0FFJ31XW6
512,La Chapelle|拉夏贝尔,山西省,临汾市,尧都区,La Chapelle(生龙国际时尚广场),尧都区解放西路31号生龙国际时尚广场3F层,36.085182,111.522696,购物服务;服装鞋帽皮具店;品牌服装店,B0FFIBOWTQ
513,La Chapelle|拉夏贝尔,山西省,临汾市,翼城县,La Chapelle(红旗街鼎尚时代广场店),翼城县唐兴镇红旗街鼎尚时代广场3楼,35.738000,111.716110,购物服务;服装鞋帽皮具店;品牌服装店,B0FFG25VVZ
514,La Chapelle|拉夏贝尔,山西省,临汾市,曲沃县,La Chapelle(府东街新东城商业广场店),曲沃县府东街新东城商业广场2F,35.640136,111.485775,购物服务;服装鞋帽皮具店;品牌服装店,B0FFH4WW79
515,La Chapelle|拉夏贝尔,山西省,临汾市,侯马市,La Chapelle,侯马市新田路21号悦华名店4楼,35.615240,111.368310,购物服务;服装鞋帽皮具店;品牌服装店,B0FFG27WE8
516,La Chapelle|拉夏贝尔,山西省,临汾市,尧都区,Candie's(生龙国际时尚广场),尧都区解放西路31号生龙国际时尚广场4F层,36.085127,111.522627,购物服务;服装鞋帽皮具店;品牌服装店,B0FFIBOWUZ
517,La Chapelle|拉夏贝尔,山西省,临汾市,曲沃县,拉夏贝儿服饰,曲沃县乐昌镇新东城商业广场2楼,35.639829,111.485680,购物服务;购物相关场所;购物相关场所,B0FFI5RVQI
518,La Chapelle|拉夏贝尔,山西省,临汾市,尧都区,拉夏贝尔PA,尧都区解放西路31号生龙国际时尚广场三楼,36.084579,111.523003,购物服务;购物相关场所;购物相关场所,B0FFJ31XW6
519,La Chapelle|拉夏贝尔,山西省,临汾市,尧都区,La Chapelle(生龙国际时尚广场),尧都区解放西路31号生龙国际时尚广场3F层,36.085182,111.522696,购物服务;服装鞋帽皮具店;品牌服装店,B0FFIBOWTQ
520,La Chapelle|拉夏贝尔,山西省,临汾市,翼城县,La Chapelle(红旗街鼎尚时代广场店),翼城县唐兴镇红旗街鼎尚时代广场3楼,35.738000,111.716110,购物服务;服装鞋帽皮具店;品牌服装店,B0FFG25VVZ
521,La Chapelle|拉夏贝尔,山西省,临汾市,曲沃县,La Chapelle(府东街新东城商业广场店),曲沃县府东街新东城商业广场2F,35.640136,111.485775,购物服务;服装鞋帽皮具店;品牌服装店,B0FFH4WW79
522,La Chapelle|拉夏贝尔,山西省,临汾市,侯马市,La Chapelle,侯马市新田路21号悦华名店4楼,35.615240,111.368310,购物服务;服装鞋帽皮具店;品牌服装店,B0FFG27WE8
523,La Chapelle|拉夏贝尔,山西省,临汾市,尧都区,Candie's(生龙国际时尚广场),尧都区解放西路31号生龙国际时尚广场4F层,36.085127,111.522627,购物服务;服装鞋帽皮具店;品牌服装店,B0FFIBOWUZ
524,La Chapelle|拉夏贝尔,山西省,临汾市,曲沃县,拉夏贝儿服饰,曲沃县乐昌镇新东城商业广场2楼,35.639829,111.485680,购物服务;购物相关场所;购物相关场所,B0FFI5RVQI
525,La Chapelle|拉夏贝尔,吉林省,吉林市,桦甸市,拉夏贝尔女装,桦甸市国贸桦甸购物中心二楼,42.975249,126.746121,购物服务;购物相关场所;购物相关场所,B0FFIDNHM9
526,La Chapelle|拉夏贝尔,吉林省,吉林市,昌邑区,La Chapelle(欧亚商都解放大路店),昌邑区解放东路6号欧亚商都解放大路店3层,43.850428,126.589060,购物服务;服装鞋帽皮具店;品牌服装店,B0FFG1PBS8
527,La Chapelle|拉夏贝尔,吉林省,吉林市,船营区,拉夏贝尔男装麻文君,船营区南京街道12号时代购物广场2层,43.845652,126.558307,购物服务;购物相关场所;购物相关场所,B0FFIFP7VO
528,La Chapelle|拉夏贝尔,吉林省,吉林市,昌邑区,La Chapelle,昌邑区吉林大街吉林财富购物广场3层,43.846912,126.567307,购物服务;服装鞋帽皮具店;品牌服装店,B0FFGC53YA
529,La Chapelle|拉夏贝尔,吉林省,吉林市,丰满区,La Chapelle,丰满区江南街道吉林大街135号新玛特购物广场2楼,43.830391,126.564616,购物服务;服装鞋帽皮具店;品牌服装店,B0FFHGY946
530,La Chapelle|拉夏贝尔,吉林省,吉林市,船营区,La Chapelle,船营区向阳街道南京街12号时代购物广场4楼,43.845821,126.558693,购物服务;服装鞋帽皮具店;品牌服装店,B0FFG21V7X
531,La Chapelle|拉夏贝尔,吉林省,吉林市,桦甸市,拉夏贝尔女装,桦甸市国贸桦甸购物中心二楼,42.975249,126.746121,购物服务;购物相关场所;购物相关场所,B0FFIDNHM9
532,La Chapelle|拉夏贝尔,吉林省,吉林市,昌邑区,La Chapelle(欧亚商都解放大路店),昌邑区解放东路6号欧亚商都解放大路店3层,43.850428,126.589060,购物服务;服装鞋帽皮具店;品牌服装店,B0FFG1PBS8
533,La Chapelle|拉夏贝尔,吉林省,吉林市,船营区,拉夏贝尔男装麻文君,船营区南京街道12号时代购物广场2层,43.845652,126.558307,购物服务;购物相关场所;购物相关场所,B0FFIFP7VO
534,La Chapelle|拉夏贝尔,吉林省,吉林市,昌邑区,La Chapelle,昌邑区吉林大街吉林财富购物广场3层,43.846912,126.567307,购物服务;服装鞋帽皮具店;品牌服装店,B0FFGC53YA
535,La Chapelle|拉夏贝尔,吉林省,吉林市,丰满区,La Chapelle,丰满区江南街道吉林大街135号新玛特购物广场2楼,43.830391,126.564616,购物服务;服装鞋帽皮具店;品牌服装店,B0FFHGY946
536,La Chapelle|拉夏贝尔,吉林省,吉林市,船营区,La Chapelle,船营区向阳街道南京街12号时代购物广场4楼,43.845821,126.558693,购物服务;服装鞋帽皮具店;品牌服装店,B0FFG21V7X
537,La Chapelle|拉夏贝尔,陕西省,延安市,宝塔区,La Chapelle,宝塔区中心街凤凰广场负1层,36.595847,109.487564,购物服务;服装鞋帽皮具店;品牌服装店,B038F0OC4H
538,La Chapelle|拉夏贝尔,陕西省,延安市,宝塔区,La Chapelle,宝塔区中心街凤凰广场负1层,36.595847,109.487564,购物服务;服装鞋帽皮具店;品牌服装店,B038F0OC4H
539,La Chapelle|拉夏贝尔,宁夏回族自治区,石嘴山市,平罗县,拉夏贝尔PA,平罗县城关镇汇融新天地二楼,38.907050,106.545051,购物服务;购物相关场所;购物相关场所,B0FFI5DK7N
540,La Chapelle|拉夏贝尔,宁夏回族自治区,石嘴山市,大武口区,La Chapelle,大武口区游艺东街美佳铭城购物广场3层,39.013355,106.380231,购物服务;服装鞋帽皮具店;品牌服装店,B0FFHFG05I
541,La Chapelle|拉夏贝尔,宁夏回族自治区,石嘴山市,平罗县,拉夏贝尔PA,平罗县城关镇汇融新天地二楼,38.907050,106.545051,购物服务;购物相关场所;购物相关场所,B0FFI5DK7N
542,La Chapelle|拉夏贝尔,宁夏回族自治区,石嘴山市,大武口区,La Chapelle,大武口区游艺东街美佳铭城购物广场3层,39.013355,106.380231,购物服务;服装鞋帽皮具店;品牌服装店,B0FFHFG05I
543,La Chapelle|拉夏贝尔,河南省,焦作市,山阳区,拉夏贝尔专柜,山阳区塔南路大商超市一楼,35.218097,113.250900,购物服务;购物相关场所;购物相关场所,B0FFH81XET
544,La Chapelle|拉夏贝尔,河南省,焦作市,山阳区,拉夏贝尔专柜,山阳区高新区丹尼斯百货一楼,35.212595,113.253167,购物服务;购物相关场所;购物相关场所,B0FFGZ7GWT
545,La Chapelle|拉夏贝尔,河南省,焦作市,沁阳市,拉夏贝尔店,沁阳市焦百商厦3楼,35.090068,112.934847,购物服务;购物相关场所;购物相关场所,B0FFI9P7N3
546,La Chapelle|拉夏贝尔,河南省,焦作市,解放区,La Chapelle(王府井百货),解放区人民路与民主路交叉口669号王府井百货F3层,35.213166,113.236989,购物服务;服装鞋帽皮具店;品牌服装店,B0FFHRSGBH
547,La Chapelle|拉夏贝尔,河南省,焦作市,解放区,拉夏贝尔大型特卖会(王府井百货),解放区人民路与民主路交叉口669号王府井百货B1层,35.213151,113.236782,购物服务;购物相关场所;购物相关场所,B0FFHXYZT2
548,La Chapelle|拉夏贝尔,河南省,焦作市,解放区,Laetia(步行街),解放区解放中路908号三维商业广场2层,35.240460,113.228073,购物服务;服装鞋帽皮具店;品牌服装店,B0FFF5JHKZ
549,La Chapelle|拉夏贝尔,河南省,焦作市,解放区,拉夏贝尔男装,解放区解放中路908号三维商业广场四楼西北角,35.241405,113.230438,购物服务;服装鞋帽皮具店;服装鞋帽皮具店,B0FFIZMWI8
550,La Chapelle|拉夏贝尔,河南省,焦作市,山阳区,拉夏贝尔专柜,山阳区塔南路大商超市一楼,35.218097,113.250900,购物服务;购物相关场所;购物相关场所,B0FFH81XET
551,La Chapelle|拉夏贝尔,河南省,焦作市,山阳区,拉夏贝尔专柜,山阳区高新区丹尼斯百货一楼,35.212595,113.253167,购物服务;购物相关场所;购物相关场所,B0FFGZ7GWT
552,La Chapelle|拉夏贝尔,河南省,焦作市,沁阳市,拉夏贝尔店,沁阳市焦百商厦3楼,35.090068,112.934847,购物服务;购物相关场所;购物相关场所,B0FFI9P7N3
553,La Chapelle|拉夏贝尔,河南省,焦作市,解放区,La Chapelle(王府井百货),解放区人民路与民主路交叉口669号王府井百货F3层,35.213166,113.236989,购物服务;服装鞋帽皮具店;品牌服装店,B0FFHRSGBH
554,La Chapelle|拉夏贝尔,河南省,焦作市,解放区,拉夏贝尔大型特卖会(王府井百货),解放区人民路与民主路交叉口669号王府井百货B1层,35.213151,113.236782,购物服务;购物相关场所;购物相关场所,B0FFHXYZT2
555,La Chapelle|拉夏贝尔,河南省,焦作市,解放区,Laetia(步行街),解放区解放中路908号三维商业广场2层,35.240460,113.228073,购物服务;服装鞋帽皮具店;品牌服装店,B0FFF5JHKZ
556,La Chapelle|拉夏贝尔,河南省,焦作市,解放区,拉夏贝尔男装,解放区解放中路908号三维商业广场四楼西北角,35.241405,113.230438,购物服务;服装鞋帽皮具店;服装鞋帽皮具店,B0FFIZMWI8
557,La Chapelle|拉夏贝尔,浙江省,金华市,兰溪市,拉夏贝尔专柜,兰溪市今朝商厦2楼,29.212564,119.478859,购物服务;购物相关场所;购物相关场所,B0FFJ0DYCK
558,La Chapelle|拉夏贝尔,浙江省,金华市,义乌市,拉夏贝尔9,义乌市新科路万达广场2号门1楼(必胜客对面),29.277250,120.046169,购物服务;购物相关场所;购物相关场所,B0FFIGQPQ7
559,La Chapelle|拉夏贝尔,浙江省,金华市,兰溪市,La Chapelle(嘉泰新时代广场),兰溪市兰江街道丹溪大道157号嘉泰新时代广场F2层,29.213029,119.451165,购物服务;服装鞋帽皮具店;品牌服装店,B0FFGBU8YZ
560,La Chapelle|拉夏贝尔,浙江省,金华市,永康市,LACHAPELLE(太平洋南龙百货),永康市大司巷28号太平洋南龙百货F2层,28.898016,120.029278,购物服务;服装鞋帽皮具店;品牌鞋店,B0FFGBNZIB
561,La Chapelle|拉夏贝尔,浙江省,金华市,义乌市,La Chapelle sport(义乌解百购物中心),义乌市城中中路111号义乌解百购物中心F3层,29.302387,120.076811,购物服务;服装鞋帽皮具店;品牌服装店,B0FFH46DY6
562,La Chapelle|拉夏贝尔,浙江省,金华市,东阳市,拉夏贝儿,东阳市大兴南街20号,29.298572,120.334242,购物服务;服装鞋帽皮具店;服装鞋帽皮具店,B0FFG0IQKS
563,La Chapelle|拉夏贝尔,浙江省,金华市,义乌市,拉夏贝儿,义乌市新科路9号义乌万达广场一楼,29.276836,120.044754,购物服务;购物相关场所;购物相关场所,B0FFIZ70P7
564,La Chapelle|拉夏贝尔,浙江省,金华市,兰溪市,拉夏贝尔专柜,兰溪市今朝商厦2楼,29.212564,119.478859,购物服务;购物相关场所;购物相关场所,B0FFJ0DYCK
565,La Chapelle|拉夏贝尔,浙江省,金华市,义乌市,拉夏贝尔9,义乌市新科路万达广场2号门1楼(必胜客对面),29.277250,120.046169,购物服务;购物相关场所;购物相关场所,B0FFIGQPQ7
566,La Chapelle|拉夏贝尔,浙江省,金华市,兰溪市,La Chapelle(嘉泰新时代广场),兰溪市兰江街道丹溪大道157号嘉泰新时代广场F2层,29.213029,119.451165,购物服务;服装鞋帽皮具店;品牌服装店,B0FFGBU8YZ
567,La Chapelle|拉夏贝尔,浙江省,金华市,永康市,LACHAPELLE(太平洋南龙百货),永康市大司巷28号太平洋南龙百货F2层,28.898016,120.029278,购物服务;服装鞋帽皮具店;品牌鞋店,B0FFGBNZIB
568,La Chapelle|拉夏贝尔,浙江省,金华市,义乌市,La Chapelle sport(义乌解百购物中心),义乌市城中中路111号义乌解百购物中心F3层,29.302387,120.076811,购物服务;服装鞋帽皮具店;品牌服装店,B0FFH46DY6
569,La Chapelle|拉夏贝尔,浙江省,金华市,东阳市,拉夏贝儿,东阳市大兴南街20号,29.298572,120.334242,购物服务;服装鞋帽皮具店;服装鞋帽皮具店,B0FFG0IQKS
570,La Chapelle|拉夏贝尔,浙江省,金华市,义乌市,拉夏贝儿,义乌市新科路9号义乌万达广场一楼,29.276836,120.044754,购物服务;购物相关场所;购物相关场所,B0FFIZ70P7
571,La Chapelle|拉夏贝尔,甘肃省,平凉市,崆峒区,拉夏贝尔女装,崆峒区新世纪商厦A座四楼,35.536644,106.689606,购物服务;购物相关场所;购物相关场所,B0FFIPPJTF
572,La Chapelle|拉夏贝尔,甘肃省,平凉市,崆峒区,拉夏贝尔女装,崆峒区新世纪商厦A座四楼,35.536644,106.689606,购物服务;购物相关场所;购物相关场所,B0FFIPPJTF
573,La Chapelle|拉夏贝尔,四川省,德阳市,旌阳区,拉夏贝尔,旌阳区天山北路6号凯德广场1楼,31.128074,104.404850,购物服务;服装鞋帽皮具店;品牌服装店,B0FFG12FOD
574,La Chapelle|拉夏贝尔,四川省,德阳市,中江县,拉夏贝尔(洋洋百货中江店),中江县凯江镇伍城南路88号洋洋百货(中江店)F2层,31.032697,104.677838,购物服务;服装鞋帽皮具店;品牌服装店,B0FFFR6E0H
575,La Chapelle|拉夏贝尔,四川省,德阳市,广汉市,拉夏贝尔专柜,广汉市雒城镇福州路2段1号世家百货二楼,30.967625,104.287315,购物服务;购物相关场所;购物相关场所,B0FFJ2CJHZ
576,La Chapelle|拉夏贝尔,四川省,德阳市,旌阳区,La Chapelle(洋洋百货),旌阳区凉山路111号洋洋百货F2层,31.123828,104.387102,购物服务;服装鞋帽皮具店;品牌服装店,B0FFHM1X7K
577,La Chapelle|拉夏贝尔,四川省,德阳市,旌阳区,LA CHAPELLE(上美广场),旌阳区岷江西路550号上美广场F2层,31.121796,104.386321,购物服务;服装鞋帽皮具店;品牌服装店,B0FFGBOPOV
578,La Chapelle|拉夏贝尔,四川省,德阳市,旌阳区,LaChapelle,旌阳区庐山北路一段8号德阳万达广场购物中心,31.127694,104.410865,购物服务;服装鞋帽皮具店;品牌服装店,B0FFHS9VUL
579,La Chapelle|拉夏贝尔,四川省,德阳市,旌阳区,拉夏贝儿,旌阳区长江西路二段洋洋百货三楼,31.127211,104.388519,购物服务;购物相关场所;购物相关场所,B0FFILK92G
580,La Chapelle|拉夏贝尔,四川省,德阳市,旌阳区,拉夏贝尔,旌阳区天山北路6号凯德广场1楼,31.128074,104.404850,购物服务;服装鞋帽皮具店;品牌服装店,B0FFG12FOD
581,La Chapelle|拉夏贝尔,四川省,德阳市,中江县,拉夏贝尔(洋洋百货中江店),中江县凯江镇伍城南路88号洋洋百货(中江店)F2层,31.032697,104.677838,购物服务;服装鞋帽皮具店;品牌服装店,B0FFFR6E0H
582,La Chapelle|拉夏贝尔,四川省,德阳市,广汉市,拉夏贝尔专柜,广汉市雒城镇福州路2段1号世家百货二楼,30.967625,104.287315,购物服务;购物相关场所;购物相关场所,B0FFJ2CJHZ
583,La Chapelle|拉夏贝尔,四川省,德阳市,旌阳区,La Chapelle(洋洋百货),旌阳区凉山路111号洋洋百货F2层,31.123828,104.387102,购物服务;服装鞋帽皮具店;品牌服装店,B0FFHM1X7K
584,La Chapelle|拉夏贝尔,四川省,德阳市,旌阳区,LA CHAPELLE(上美广场),旌阳区岷江西路550号上美广场F2层,31.121796,104.386321,购物服务;服装鞋帽皮具店;品牌服装店,B0FFGBOPOV
585,La Chapelle|拉夏贝尔,四川省,德阳市,旌阳区,LaChapelle,旌阳区庐山北路一段8号德阳万达广场购物中心,31.127694,104.410865,购物服务;服装鞋帽皮具店;品牌服装店,B0FFHS9VUL
586,La Chapelle|拉夏贝尔,四川省,德阳市,旌阳区,拉夏贝儿,旌阳区长江西路二段洋洋百货三楼,31.127211,104.388519,购物服务;购物相关场所;购物相关场所,B0FFILK92G
587,La Chapelle|拉夏贝尔,河北省,邯郸市,邯山区,拉夏贝尔(邯山商场),邯山区南大街9号邯山商场4F层,36.602969,114.481950,购物服务;服装鞋帽皮具店;品牌服装店,B0FFG1QSR7
588,La Chapelle|拉夏贝尔,河北省,邯郸市,永年区,拉夏贝尔(永年新世纪广场),永年区新陈酚胝府街交叉口处西行永年新世纪广场4F层,36.776830,114.492686,购物服务;服装鞋帽皮具店;品牌服装店,B0FFI0CXVQ
589,La Chapelle|拉夏贝尔,河北省,邯郸市,丛台区,La Chapelle(阳光天鸿广场A座),丛台区联纺东路505号阳光天鸿广场A座F3层,36.626487,114.518774,购物服务;服装鞋帽皮具店;品牌服装店,B0FFFTQWH8
590,La Chapelle|拉夏贝尔,河北省,邯郸市,磁县,La Chapelle,磁县兴盛路与友谊北大街交叉口东100米,36.379524,114.373256,购物服务;服装鞋帽皮具店;服装鞋帽皮具店,B0FFGA03CO
591,La Chapelle|拉夏贝尔,河北省,邯郸市,涉县,拉夏贝尔PUELLA专柜,涉县涉城镇新世纪广场四楼女装,36.565643,113.671211,购物服务;购物相关场所;购物相关场所,B0FFIS02NX
592,La Chapelle|拉夏贝尔,河北省,邯郸市,邯山区,Candie's(阳光世贸广场),邯山区陵西南大街5号阳光世贸广场F4层,36.602622,114.483467,购物服务;服装鞋帽皮具店;品牌服装店,B0FFH8Q0WF
593,La Chapelle|拉夏贝尔,河北省,邯郸市,邯山区,拉夏贝尔(邯山商场),邯山区南大街9号邯山商场4F层,36.602969,114.481950,购物服务;服装鞋帽皮具店;品牌服装店,B0FFG1QSR7
594,La Chapelle|拉夏贝尔,河北省,邯郸市,永年区,拉夏贝尔(永年新世纪广场),永年区新陈酚胝府街交叉口处西行永年新世纪广场4F层,36.776830,114.492686,购物服务;服装鞋帽皮具店;品牌服装店,B0FFI0CXVQ
595,La Chapelle|拉夏贝尔,河北省,邯郸市,丛台区,La Chapelle(阳光天鸿广场A座),丛台区联纺东路505号阳光天鸿广场A座F3层,36.626487,114.518774,购物服务;服装鞋帽皮具店;品牌服装店,B0FFFTQWH8
596,La Chapelle|拉夏贝尔,河北省,邯郸市,磁县,La Chapelle,磁县兴盛路与友谊北大街交叉口东100米,36.379524,114.373256,购物服务;服装鞋帽皮具店;服装鞋帽皮具店,B0FFGA03CO
597,La Chapelle|拉夏贝尔,河北省,邯郸市,涉县,拉夏贝尔PUELLA专柜,涉县涉城镇新世纪广场四楼女装,36.565643,113.671211,购物服务;购物相关场所;购物相关场所,B0FFIS02NX
598,La Chapelle|拉夏贝尔,河北省,邯郸市,邯山区,Candie's(阳光世贸广场),邯山区陵西南大街5号阳光世贸广场F4层,36.602622,114.483467,购物服务;服装鞋帽皮具店;品牌服装店,B0FFH8Q0WF
599,La Chapelle|拉夏贝尔,贵州省,毕节市,七星关区,拉夏贝尔专柜,七星关区碧阳街道奥莱国际购物中心,27.279997,105.293152,购物服务;购物相关场所;购物相关场所,B0FFJ092Y6
600,La Chapelle|拉夏贝尔,贵州省,毕节市,七星关区,拉夏贝尔专柜,七星关区碧阳街道奥莱国际购物中心,27.279997,105.293152,购物服务;购物相关场所;购物相关场所,B0FFJ092Y6
601,La Chapelle|拉夏贝尔,辽宁省,抚顺市,顺城区,La Chapelle(印象新城购物中心),顺城区新城东路与盛城街交叉口印象新城购物中心F1层,41.882009,123.953440,购物服务;服装鞋帽皮具店;品牌服装店,B0FFHS9FMV
602,La Chapelle|拉夏贝尔,辽宁省,抚顺市,新抚区,La Chapelle,新抚区裕民路浙商新玛特二号馆3楼,41.867054,123.906189,购物服务;服装鞋帽皮具店;服装鞋帽皮具店,B0FFGMRK85
603,La Chapelle|拉夏贝尔,辽宁省,抚顺市,新抚区,La Chapelle(万达广场),新抚区浑河南路中段56号万达广场F1层,41.865754,123.902051,购物服务;服装鞋帽皮具店;品牌服装店,B0FFGXU0JR
604,La Chapelle|拉夏贝尔,辽宁省,抚顺市,顺城区,La Chapelle,顺城区临江路与新华大街交汇处乐都汇1层,41.878620,123.917892,购物服务;服装鞋帽皮具店;服装鞋帽皮具店,B0FFFDFNWX
605,La Chapelle|拉夏贝尔,辽宁省,抚顺市,新抚区,La Chapelle,新抚区西4路抚顺商业城2层,41.859985,123.900367,购物服务;服装鞋帽皮具店;品牌服装店,B0FFG1PQH1
606,La Chapelle|拉夏贝尔,辽宁省,抚顺市,新抚区,青柠小栈,新抚区东四路4号百货大楼4楼拉夏贝尔旁,41.863503,123.904885,餐饮服务;餐饮相关场所;餐饮相关,B0FFGP8T62
607,La Chapelle|拉夏贝尔,辽宁省,抚顺市,顺城区,POTE,顺城区临江路与新华大街交汇处乐都汇1层,41.878620,123.917892,购物服务;服装鞋帽皮具店;品牌服装店,B0FFH3W0DY
608,La Chapelle|拉夏贝尔,辽宁省,抚顺市,顺城区,La Chapelle(印象新城购物中心),顺城区新城东路与盛城街交叉口印象新城购物中心F1层,41.882009,123.953440,购物服务;服装鞋帽皮具店;品牌服装店,B0FFHS9FMV
609,La Chapelle|拉夏贝尔,辽宁省,抚顺市,新抚区,La Chapelle,新抚区裕民路浙商新玛特二号馆3楼,41.867054,123.906189,购物服务;服装鞋帽皮具店;服装鞋帽皮具店,B0FFGMRK85
610,La Chapelle|拉夏贝尔,辽宁省,抚顺市,新抚区,La Chapelle(万达广场),新抚区浑河南路中段56号万达广场F1层,41.865754,123.902051,购物服务;服装鞋帽皮具店;品牌服装店,B0FFGXU0JR
611,La Chapelle|拉夏贝尔,辽宁省,抚顺市,顺城区,La Chapelle,顺城区临江路与新华大街交汇处乐都汇1层,41.878620,123.917892,购物服务;服装鞋帽皮具店;服装鞋帽皮具店,B0FFFDFNWX
612,La Chapelle|拉夏贝尔,辽宁省,抚顺市,新抚区,La Chapelle,新抚区西4路抚顺商业城2层,41.859985,123.900367,购物服务;服装鞋帽皮具店;品牌服装店,B0FFG1PQH1
613,La Chapelle|拉夏贝尔,辽宁省,抚顺市,新抚区,青柠小栈,新抚区东四路4号百货大楼4楼拉夏贝尔旁,41.863503,123.904885,餐饮服务;餐饮相关场所;餐饮相关,B0FFGP8T62
614,La Chapelle|拉夏贝尔,辽宁省,抚顺市,顺城区,POTE,顺城区临江路与新华大街交汇处乐都汇1层,41.878620,123.917892,购物服务;服装鞋帽皮具店;品牌服装店,B0FFH3W0DY
615,La Chapelle|拉夏贝尔,云南省,玉溪市,红塔区,La Chapelle(摩尔),红塔区南北大街41号摩尔1层,24.358630,102.543780,购物服务;服装鞋帽皮具店;品牌服装店,B0FFG1U84Y
616,La Chapelle|拉夏贝尔,云南省,玉溪市,红塔区,La Chapelle(摩尔),红塔区南北大街41号摩尔1层,24.358630,102.543780,购物服务;服装鞋帽皮具店;品牌服装店,B0FFG1U84Y
617,La Chapelle|拉夏贝尔,江西省,萍乡市,安源区,LA CHAPELLE,安源区昭萍东路7号南昌百货大楼萍乡购物中心F2,27.629882,113.851585,购物服务;服装鞋帽皮具店;品牌服装店,B0FFGKXU0D
618,La Chapelle|拉夏贝尔,江西省,萍乡市,安源区,La Chapelle,安源区建设路润达国际一楼1F-17A,27.643698,113.850780,购物服务;服装鞋帽皮具店;品牌服装店,B0FFHJLZJX
619,La Chapelle|拉夏贝尔,江西省,萍乡市,安源区,LA CHAPELLE,安源区昭萍东路7号南昌百货大楼萍乡购物中心F2,27.629882,113.851585,购物服务;服装鞋帽皮具店;品牌服装店,B0FFGKXU0D
620,La Chapelle|拉夏贝尔,江西省,萍乡市,安源区,La Chapelle,安源区建设路润达国际一楼1F-17A,27.643698,113.850780,购物服务;服装鞋帽皮具店;品牌服装店,B0FFHJLZJX
621,La Chapelle|拉夏贝尔,内蒙古自治区,巴彦淖尔市,临河区,拉夏贝尔(国泰时尚广场),临河区胜利路75号国泰时尚广场F2层,40.752703,107.419907,购物服务;服装鞋帽皮具店;品牌服装店,B0FFGKXKX7
622,La Chapelle|拉夏贝尔,内蒙古自治区,巴彦淖尔市,杭锦后旗,拉夏贝尔专卖,杭锦后旗陕坝镇金鼎时代三楼,40.888143,107.145817,购物服务;购物相关场所;购物相关场所,B0FFHD9J0O
623,La Chapelle|拉夏贝尔,内蒙古自治区,巴彦淖尔市,临河区,拉夏贝,临河区胜利路蓝宇大厦3楼,40.761146,107.414932,购物服务;购物相关场所;购物相关场所,B0FFHTXDIE
624,La Chapelle|拉夏贝尔,内蒙古自治区,巴彦淖尔市,临河区,CANDIE'S(维多利购物中心),临河区新华西街与水源路东100米维多利购物中心F3层,40.747866,107.399476,购物服务;服装鞋帽皮具店;品牌服装店,B0FFGZ5BQ8
625,La Chapelle|拉夏贝尔,内蒙古自治区,巴彦淖尔市,临河区,拉夏贝尔(国泰时尚广场),临河区胜利路75号国泰时尚广场F2层,40.752703,107.419907,购物服务;服装鞋帽皮具店;品牌服装店,B0FFGKXKX7
626,La Chapelle|拉夏贝尔,内蒙古自治区,巴彦淖尔市,杭锦后旗,拉夏贝尔专卖,杭锦后旗陕坝镇金鼎时代三楼,40.888143,107.145817,购物服务;购物相关场所;购物相关场所,B0FFHD9J0O
627,La Chapelle|拉夏贝尔,内蒙古自治区,巴彦淖尔市,临河区,拉夏贝,临河区胜利路蓝宇大厦3楼,40.761146,107.414932,购物服务;购物相关场所;购物相关场所,B0FFHTXDIE
628,La Chapelle|拉夏贝尔,内蒙古自治区,巴彦淖尔市,临河区,CANDIE'S(维多利购物中心),临河区新华西街与水源路东100米维多利购物中心F3层,40.747866,107.399476,购物服务;服装鞋帽皮具店;品牌服装店,B0FFGZ5BQ8
629,La Chapelle|拉夏贝尔,山东省,临沂市,蒙阴县,拉夏贝尔专卖店,蒙阴县九州商业大厦二楼,35.710076,117.945560,购物服务;购物相关场所;购物相关场所,B0FFHZS9TO
630,La Chapelle|拉夏贝尔,山东省,临沂市,兰山区,拉夏贝尔集合店,兰山区解放路183号九州商业大厦3楼,35.066879,118.332504,购物服务;服装鞋帽皮具店;品牌服装店,B0FFIYUX69
631,La Chapelle|拉夏贝尔,山东省,临沂市,兰山区,La Chapelle(和谐广场),兰山区解放路158号和谐广场1F层,35.064774,118.328166,购物服务;服装鞋帽皮具店;品牌服装店,B0FFFY0RUS
632,La Chapelle|拉夏贝尔,山东省,临沂市,兰山区,La Chapelle(沂蒙北路),兰山区北城新区沂蒙路与上海路交汇处颐高・上海街2期M1层,35.108692,118.345089,购物服务;服装鞋帽皮具店;品牌服装店,B0FFI56VJG
633,La Chapelle|拉夏贝尔,山东省,临沂市,罗庄区,La Chapelle(开元路),罗庄区开元路与宝泉路交汇处宝丽财富广场,34.973382,118.285859,购物服务;服装鞋帽皮具店;品牌服装店,B0FFHX31N3
634,La Chapelle|拉夏贝尔,山东省,临沂市,兰山区,LA CHAPELLE,兰山区沂蒙路与涑河南街振华购物中心三楼,35.077795,118.345160,购物服务;服装鞋帽皮具店;品牌服装店,B0FFHSP03C
635,La Chapelle|拉夏贝尔,山东省,临沂市,兰山区,La Chapelle,兰山区解放路183号九州商业大厦F1层,35.067156,118.332186,购物服务;服装鞋帽皮具店;品牌服装店,B0FFG1ZJRH
636,La Chapelle|拉夏贝尔,山东省,临沂市,兰山区,Puella,兰山区解放路183号九州商业大厦F1层,35.067304,118.332350,购物服务;服装鞋帽皮具店;品牌服装店,B0FFH1PRGY
637,La Chapelle|拉夏贝尔,山东省,临沂市,蒙阴县,拉夏贝尔专卖店,蒙阴县九州商业大厦二楼,35.710076,117.945560,购物服务;购物相关场所;购物相关场所,B0FFHZS9TO
638,La Chapelle|拉夏贝尔,山东省,临沂市,兰山区,拉夏贝尔集合店,兰山区解放路183号九州商业大厦3楼,35.066879,118.332504,购物服务;服装鞋帽皮具店;品牌服装店,B0FFIYUX69
639,La Chapelle|拉夏贝尔,山东省,临沂市,兰山区,La Chapelle(和谐广场),兰山区解放路158号和谐广场1F层,35.064774,118.328166,购物服务;服装鞋帽皮具店;品牌服装店,B0FFFY0RUS
640,La Chapelle|拉夏贝尔,山东省,临沂市,兰山区,La Chapelle(沂蒙北路),兰山区北城新区沂蒙路与上海路交汇处颐高・上海街2期M1层,35.108692,118.345089,购物服务;服装鞋帽皮具店;品牌服装店,B0FFI56VJG
641,La Chapelle|拉夏贝尔,山东省,临沂市,罗庄区,La Chapelle(开元路),罗庄区开元路与宝泉路交汇处宝丽财富广场,34.973382,118.285859,购物服务;服装鞋帽皮具店;品牌服装店,B0FFHX31N3
642,La Chapelle|拉夏贝尔,山东省,临沂市,兰山区,LA CHAPELLE,兰山区沂蒙路与涑河南街振华购物中心三楼,35.077795,118.345160,购物服务;服装鞋帽皮具店;品牌服装店,B0FFHSP03C
643,La Chapelle|拉夏贝尔,山东省,临沂市,兰山区,La Chapelle,兰山区解放路183号九州商业大厦F1层,35.067156,118.332186,购物服务;服装鞋帽皮具店;品牌服装店,B0FFG1ZJRH
644,La Chapelle|拉夏贝尔,山东省,临沂市,兰山区,Puella,兰山区解放路183号九州商业大厦F1层,35.067304,118.332350,购物服务;服装鞋帽皮具店;品牌服装店,B0FFH1PRGY
645,La Chapelle|拉夏贝尔,浙江省,绍兴市,越城区,拉夏贝尔(百盛),越城区胜利东路360号百盛F2层,30.002440,120.596144,购物服务;服装鞋帽皮具店;品牌服装店,B0FFH2YK72
646,La Chapelle|拉夏贝尔,浙江省,绍兴市,嵊州市,拉夏贝尔(鹿山广场),嵊州市嵊州鹿山路6-7号鹿山广场2F层,29.590443,120.826754,购物服务;服装鞋帽皮具店;品牌服装店,B0FFGYC0TQ
647,La Chapelle|拉夏贝尔,浙江省,绍兴市,嵊州市,拉夏贝尔工厂店,嵊州市领带园二路1号,29.567923,120.833578,购物服务;购物相关场所;购物相关场所,B0FFGBWVPO
648,La Chapelle|拉夏贝尔,浙江省,绍兴市,越城区,拉夏贝尔专柜,越城区解放北路199号汇金广场二楼,30.006140,120.580302,购物服务;购物相关场所;购物相关场所,B0FFI88U6Z
649,La Chapelle|拉夏贝尔,浙江省,绍兴市,柯桥区,La Chapelle(万达广场),柯桥区钱陶公路799号万达广场F2层,30.092991,120.510115,购物服务;服装鞋帽皮具店;品牌服装店,B0FFHU5WST
650,La Chapelle|拉夏贝尔,浙江省,绍兴市,上虞区,La Chapelle(上百・万和城),上虞区市民大道688号上百・万和城2F层,30.031569,120.876059,购物服务;服装鞋帽皮具店;品牌服装店,B0FFHITHPM
651,La Chapelle|拉夏贝尔,浙江省,绍兴市,诸暨市,La Chapelle(第一百货),诸暨市暨阳路7号第一百货2F层,29.717473,120.238292,购物服务;服装鞋帽皮具店;品牌服装店,B0FFGBX4B6
652,La Chapelle|拉夏贝尔,浙江省,绍兴市,诸暨市,La Chapelle(雄风百货广场),诸暨市艮塔路28号雄风百货广场F2层,29.720299,120.242055,购物服务;服装鞋帽皮具店;品牌服装店,B0FFH8M6K3
653,La Chapelle|拉夏贝尔,浙江省,绍兴市,越城区,LA CHAPELLE(世茂广场),越城区胜利东路360号世茂广场F1层,30.003343,120.595465,购物服务;服装鞋帽皮具店;品牌服装店,B0FFFFFXGC
654,La Chapelle|拉夏贝尔,浙江省,绍兴市,越城区,La Chapelle,越城区中兴路中惠百货1层,29.997340,120.587986,购物服务;服装鞋帽皮具店;品牌服装店,B0FFFDU9E6
655,La Chapelle|拉夏贝尔,浙江省,绍兴市,上虞区,La Chapelle,上虞区称山北路399号上虞万达广场F1,30.052858,120.843850,购物服务;服装鞋帽皮具店;品牌服装店,B0FFI6Z88T
656,La Chapelle|拉夏贝尔,浙江省,绍兴市,越城区,La Chapelle SPORT(百盛),越城区胜利东路360号百盛F2层,30.002519,120.596118,购物服务;服装鞋帽皮具店;品牌服装店,B0FFI6OLUG
657,La Chapelle|拉夏贝尔,浙江省,绍兴市,诸暨市,LB专柜,诸暨市暨阳路7号第一百货二楼拉夏贝尔专柜,29.717251,120.238441,购物服务;购物相关场所;购物相关场所,B0FFI8Q4TB
658,La Chapelle|拉夏贝尔,浙江省,绍兴市,越城区,CANDIE'S(益泉百货),越城区世纪东街57号益泉百货F2层,30.078835,120.611658,购物服务;服装鞋帽皮具店;品牌服装店,B0FFGBYUUY
659,La Chapelle|拉夏贝尔,浙江省,绍兴市,越城区,拉夏贝尔(百盛),越城区胜利东路360号百盛F2层,30.002440,120.596144,购物服务;服装鞋帽皮具店;品牌服装店,B0FFH2YK72
660,La Chapelle|拉夏贝尔,浙江省,绍兴市,嵊州市,拉夏贝尔(鹿山广场),嵊州市嵊州鹿山路6-7号鹿山广场2F层,29.590443,120.826754,购物服务;服装鞋帽皮具店;品牌服装店,B0FFGYC0TQ
661,La Chapelle|拉夏贝尔,浙江省,绍兴市,嵊州市,拉夏贝尔工厂店,嵊州市领带园二路1号,29.567923,120.833578,购物服务;购物相关场所;购物相关场所,B0FFGBWVPO
662,La Chapelle|拉夏贝尔,浙江省,绍兴市,越城区,拉夏贝尔专柜,越城区解放北路199号汇金广场二楼,30.006140,120.580302,购物服务;购物相关场所;购物相关场所,B0FFI88U6Z
663,La Chapelle|拉夏贝尔,浙江省,绍兴市,柯桥区,La Chapelle(万达广场),柯桥区钱陶公路799号万达广场F2层,30.092991,120.510115,购物服务;服装鞋帽皮具店;品牌服装店,B0FFHU5WST
664,La Chapelle|拉夏贝尔,浙江省,绍兴市,上虞区,La Chapelle(上百・万和城),上虞区市民大道688号上百・万和城2F层,30.031569,120.876059,购物服务;服装鞋帽皮具店;品牌服装店,B0FFHITHPM
665,La Chapelle|拉夏贝尔,浙江省,绍兴市,诸暨市,La Chapelle(第一百货),诸暨市暨阳路7号第一百货2F层,29.717473,120.238292,购物服务;服装鞋帽皮具店;品牌服装店,B0FFGBX4B6
666,La Chapelle|拉夏贝尔,浙江省,绍兴市,诸暨市,La Chapelle(雄风百货广场),诸暨市艮塔路28号雄风百货广场F2层,29.720299,120.242055,购物服务;服装鞋帽皮具店;品牌服装店,B0FFH8M6K3
667,La Chapelle|拉夏贝尔,浙江省,绍兴市,越城区,LA CHAPELLE(世茂广场),越城区胜利东路360号世茂广场F1层,30.003343,120.595465,购物服务;服装鞋帽皮具店;品牌服装店,B0FFFFFXGC
668,La Chapelle|拉夏贝尔,浙江省,绍兴市,越城区,La Chapelle,越城区中兴路中惠百货1层,29.997340,120.587986,购物服务;服装鞋帽皮具店;品牌服装店,B0FFFDU9E6
669,La Chapelle|拉夏贝尔,浙江省,绍兴市,上虞区,La Chapelle,上虞区称山北路399号上虞万达广场F1,30.052858,120.843850,购物服务;服装鞋帽皮具店;品牌服装店,B0FFI6Z88T
670,La Chapelle|拉夏贝尔,浙江省,绍兴市,越城区,La Chapelle SPORT(百盛),越城区胜利东路360号百盛F2层,30.002519,120.596118,购物服务;服装鞋帽皮具店;品牌服装店,B0FFI6OLUG
671,La Chapelle|拉夏贝尔,浙江省,绍兴市,诸暨市,LB专柜,诸暨市暨阳路7号第一百货二楼拉夏贝尔专柜,29.717251,120.238441,购物服务;购物相关场所;购物相关场所,B0FFI8Q4TB
672,La Chapelle|拉夏贝尔,浙江省,绍兴市,越城区,CANDIE'S(益泉百货),越城区世纪东街57号益泉百货F2层,30.078835,120.611658,购物服务;服装鞋帽皮具店;品牌服装店,B0FFGBYUUY
673,La Chapelle|拉夏贝尔,云南省,保山市,隆阳区,拉夏贝尔(保山五洲国际广场),隆阳区五里亭路与正阳北路交叉口保山五洲国际广场F1层,25.135504,99.174778,购物服务;服装鞋帽皮具店;品牌服装店,B0FFH3E4I0
674,La Chapelle|拉夏贝尔,云南省,保山市,腾冲市,拉夏贝尔专卖店,腾冲市腾越镇翡翠路永兴财富中心一楼,25.016235,98.495566,购物服务;购物相关场所;购物相关场所,B0FFHJ9MIS
675,La Chapelle|拉夏贝尔,云南省,保山市,隆阳区,拉夏贝尔(保山五洲国际广场),隆阳区五里亭路与正阳北路交叉口保山五洲国际广场F1层,25.135504,99.174778,购物服务;服装鞋帽皮具店;品牌服装店,B0FFH3E4I0
676,La Chapelle|拉夏贝尔,云南省,保山市,腾冲市,拉夏贝尔专卖店,腾冲市腾越镇翡翠路永兴财富中心一楼,25.016235,98.495566,购物服务;购物相关场所;购物相关场所,B0FFHJ9MIS
677,La Chapelle|拉夏贝尔,四川省,南充市,顺庆区,拉夏贝尔,顺庆区人民中路1号茂业百货2层,30.789307,106.084217,购物服务;服装鞋帽皮具店;品牌服装店,B0FFGMR4GU
678,La Chapelle|拉夏贝尔,四川省,南充市,顺庆区,La Chapelle(红光路),顺庆区人民南路66号新世纪百货(南充商都店)4层,30.777436,106.083755,购物服务;服装鞋帽皮具店;品牌皮具店|购物服务;服装鞋帽皮具店;品牌服装店,B0FFG5CZJD
679,La Chapelle|拉夏贝尔,四川省,南充市,南部县,拉夏贝儿,南部县瑞安路新世纪广场购物中心一楼,31.352407,106.062013,购物服务;购物相关场所;购物相关场所,B0FFH6M7K9
680,La Chapelle|拉夏贝尔,四川省,南充市,顺庆区,拉夏贝尔,顺庆区人民中路1号茂业百货2层,30.789307,106.084217,购物服务;服装鞋帽皮具店;品牌服装店,B0FFGMR4GU
681,La Chapelle|拉夏贝尔,四川省,南充市,顺庆区,La Chapelle(红光路),顺庆区人民南路66号新世纪百货(南充商都店)4层,30.777436,106.083755,购物服务;服装鞋帽皮具店;品牌皮具店|购物服务;服装鞋帽皮具店;品牌服装店,B0FFG5CZJD
682,La Chapelle|拉夏贝尔,四川省,南充市,南部县,拉夏贝儿,南部县瑞安路新世纪广场购物中心一楼,31.352407,106.062013,购物服务;购物相关场所;购物相关场所,B0FFH6M7K9
683,La Chapelle|拉夏贝尔,宁夏回族自治区,银川市,贺兰县,拉夏贝尔,贺兰县习岗镇园艺路18号奥特莱斯名牌折扣城,38.582237,106.302900,购物服务;服装鞋帽皮具店;品牌服装店,B0FFGIFJ4Y
684,La Chapelle|拉夏贝尔,宁夏回族自治区,银川市,兴庆区,拉夏贝尔(新华百货),兴庆区解放西街33号新华百货F4层,38.467712,106.273412,购物服务;服装鞋帽皮具店;品牌服装店,B0FFFFRH98
685,La Chapelle|拉夏贝尔,宁夏回族自治区,银川市,金凤区,拉夏贝尔(万达广场),金凤区正源北街22号万达广场F2层,38.486420,106.248635,购物服务;服装鞋帽皮具店;品牌服装店,B0FFHW7TG6
686,La Chapelle|拉夏贝尔,宁夏回族自治区,银川市,西夏区,拉夏贝尔(新华百货),西夏区文萃北路56号新华百货F2层,38.488273,106.136047,购物服务;服装鞋帽皮具店;品牌服装店,B0FFFFWAKB
687,La Chapelle|拉夏贝尔,宁夏回族自治区,银川市,西夏区,拉夏贝尔(万达广场),西夏区金波北街75号万达广场F2层,38.492153,106.149616,购物服务;服装鞋帽皮具店;品牌服装店,B0FFHW7ZYW
688,La Chapelle|拉夏贝尔,宁夏回族自治区,银川市,金凤区,拉夏贝尔女装集合(王府井赛特奥特莱斯),金凤区正源北街大阅城王府井赛特奥特莱斯F3层,38.513953,106.255876,购物服务;服装鞋帽皮具店;品牌服装店,B0FFHITG2E
689,La Chapelle|拉夏贝尔,宁夏回族自治区,银川市,金凤区,La Chapelle(万达广场),金凤区正源北街22号万达广场万达百货1层1073,38.487216,106.247789,购物服务;服装鞋帽皮具店;品牌服装店,B03B70R7PT
690,La Chapelle|拉夏贝尔,宁夏回族自治区,银川市,兴庆区,La Chapelle(新华百货),兴庆区解放西街2号新华百货F3层,38.466282,106.275006,购物服务;服装鞋帽皮具店;品牌服装店,B0FFI5MHIN
691,La Chapelle|拉夏贝尔,宁夏回族自治区,银川市,西夏区,La Chapelle(万达广场),西夏区金波北街75号万达广场F1层,38.491901,106.149464,购物服务;服装鞋帽皮具店;品牌服装店,B0FFFA78J8
692,La Chapelle|拉夏贝尔,宁夏回族自治区,银川市,兴庆区,La Chapelle(国芳百货店),兴庆区新华东街180对面银川国芳百盛百货商场2层,38.464935,106.279480,购物服务;服装鞋帽皮具店;品牌服装店,B0FFFDVV4P
693,La Chapelle|拉夏贝尔,宁夏回族自治区,银川市,金凤区,La Chapelle sport,金凤区北京中路380新华百货CC park购物广场1层,38.483617,106.213725,购物服务;服装鞋帽皮具店;品牌服装店,B0FFG2CY9G
694,La Chapelle|拉夏贝尔,宁夏回族自治区,银川市,贺兰县,拉夏贝尔,贺兰县习岗镇园艺路18号奥特莱斯名牌折扣城,38.582237,106.302900,购物服务;服装鞋帽皮具店;品牌服装店,B0FFGIFJ4Y
695,La Chapelle|拉夏贝尔,宁夏回族自治区,银川市,兴庆区,拉夏贝尔(新华百货),兴庆区解放西街33号新华百货F4层,38.467712,106.273412,购物服务;服装鞋帽皮具店;品牌服装店,B0FFFFRH98
696,La Chapelle|拉夏贝尔,宁夏回族自治区,银川市,金凤区,拉夏贝尔(万达广场),金凤区正源北街22号万达广场F2层,38.486420,106.248635,购物服务;服装鞋帽皮具店;品牌服装店,B0FFHW7TG6
697,La Chapelle|拉夏贝尔,宁夏回族自治区,银川市,西夏区,拉夏贝尔(新华百货),西夏区文萃北路56号新华百货F2层,38.488273,106.136047,购物服务;服装鞋帽皮具店;品牌服装店,B0FFFFWAKB
698,La Chapelle|拉夏贝尔,宁夏回族自治区,银川市,西夏区,拉夏贝尔(万达广场),西夏区金波北街75号万达广场F2层,38.492153,106.149616,购物服务;服装鞋帽皮具店;品牌服装店,B0FFHW7ZYW
699,La Chapelle|拉夏贝尔,宁夏回族自治区,银川市,金凤区,拉夏贝尔女装集合(王府井赛特奥特莱斯),金凤区正源北街大阅城王府井赛特奥特莱斯F3层,38.513953,106.255876,购物服务;服装鞋帽皮具店;品牌服装店,B0FFHITG2E
700,La Chapelle|拉夏贝尔,宁夏回族自治区,银川市,金凤区,La Chapelle(万达广场),金凤区正源北街22号万达广场万达百货1层1073,38.487216,106.247789,购物服务;服装鞋帽皮具店;品牌服装店,B03B70R7PT
701,La Chapelle|拉夏贝尔,宁夏回族自治区,银川市,兴庆区,La Chapelle(新华百货),兴庆区解放西街2号新华百货F3层,38.466282,106.275006,购物服务;服装鞋帽皮具店;品牌服装店,B0FFI5MHIN
702,La Chapelle|拉夏贝尔,宁夏回族自治区,银川市,西夏区,La Chapelle(万达广场),西夏区金波北街75号万达广场F1层,38.491901,106.149464,购物服务;服装鞋帽皮具店;品牌服装店,B0FFFA78J8
703,La Chapelle|拉夏贝尔,宁夏回族自治区,银川市,兴庆区,La Chapelle(国芳百货店),兴庆区新华东街180对面银川国芳百盛百货商场2层,38.464935,106.279480,购物服务;服装鞋帽皮具店;品牌服装店,B0FFFDVV4P
704,La Chapelle|拉夏贝尔,宁夏回族自治区,银川市,金凤区,La Chapelle sport,金凤区北京中路380新华百货CC park购物广场1层,38.483617,106.213725,购物服务;服装鞋帽皮具店;品牌服装店,B0FFG2CY9G
705,La Chapelle|拉夏贝尔,江西省,宜春市,袁州区,拉夏贝尔(步步高广场),袁州区中山中路318号步步高广场F3层,27.796015,114.386249,购物服务;服装鞋帽皮具店;品牌服装店,B0FFI697I3
706,La Chapelle|拉夏贝尔,江西省,宜春市,袁州区,La Chapelle(宜春万达广场),袁州区宜阳东大道6号宜春万达广场F1层,27.805540,114.424165,购物服务;购物相关场所;购物相关场所,B0FFHFJ773
707,La Chapelle|拉夏贝尔,江西省,宜春市,袁州区,La Chapelle,袁州区东风大街283号青龙大厦A座2层,27.795732,114.387548,购物服务;服装鞋帽皮具店;品牌服装店,B0FFG1PLMH
708,La Chapelle|拉夏贝尔,江西省,宜春市,袁州区,拉夏贝尔PUELLA专柜,袁州区青龙商厦二楼,27.795731,114.387550,购物服务;购物相关场所;购物相关场所,B0FFIQ9ZUE
709,La Chapelle|拉夏贝尔,江西省,宜春市,袁州区,拉夏贝尔(步步高广场),袁州区中山中路318号步步高广场F3层,27.796015,114.386249,购物服务;服装鞋帽皮具店;品牌服装店,B0FFI697I3
710,La Chapelle|拉夏贝尔,江西省,宜春市,袁州区,La Chapelle(宜春万达广场),袁州区宜阳东大道6号宜春万达广场F1层,27.805540,114.424165,购物服务;购物相关场所;购物相关场所,B0FFHFJ773
711,La Chapelle|拉夏贝尔,江西省,宜春市,袁州区,La Chapelle,袁州区东风大街283号青龙大厦A座2层,27.795732,114.387548,购物服务;服装鞋帽皮具店;品牌服装店,B0FFG1PLMH
712,La Chapelle|拉夏贝尔,江西省,宜春市,袁州区,拉夏贝尔PUELLA专柜,袁州区青龙商厦二楼,27.795731,114.387550,购物服务;购物相关场所;购物相关场所,B0FFIQ9ZUE
713,La Chapelle|拉夏贝尔,河南省,三门峡市,湖滨区,拉夏贝尔(丹尼斯百货),湖滨区六峰路中段丹尼斯百货F2层,34.779266,111.198803,购物服务;服装鞋帽皮具店;品牌服装店,B0FFFZZF7A
714,La Chapelle|拉夏贝尔,河南省,三门峡市,灵宝市,拉夏贝尔专柜,灵宝市城关镇原盛祥国际源浩生活广场二楼,34.536537,110.879448,购物服务;购物相关场所;购物相关场所,B0FFIWSY5S
715,La Chapelle|拉夏贝尔,河南省,三门峡市,灵宝市,拉夏贝尔专柜,灵宝市函谷路与长安路交叉处源浩新时代百货二楼,34.527840,110.890274,购物服务;购物相关场所;购物相关场所,B0FFJ2LFCH
716,La Chapelle|拉夏贝尔,河南省,三门峡市,灵宝市,拉夏贝尔7M,灵宝市友谊百货二楼,34.524444,110.872224,购物服务;购物相关场所;购物相关场所,B0FFIE4A4L
717,La Chapelle|拉夏贝尔,河南省,三门峡市,湖滨区,拉夏贝儿,湖滨区黄河路大涨百货,34.779636,111.199692,购物服务;购物相关场所;购物相关场所,B0FFIWOQ3M
718,La Chapelle|拉夏贝尔,河南省,三门峡市,湖滨区,拉夏贝尔(丹尼斯百货),湖滨区六峰路中段丹尼斯百货F2层,34.779266,111.198803,购物服务;服装鞋帽皮具店;品牌服装店,B0FFFZZF7A
719,La Chapelle|拉夏贝尔,河南省,三门峡市,灵宝市,拉夏贝尔专柜,灵宝市城关镇原盛祥国际源浩生活广场二楼,34.536537,110.879448,购物服务;购物相关场所;购物相关场所,B0FFIWSY5S
720,La Chapelle|拉夏贝尔,河南省,三门峡市,灵宝市,拉夏贝尔专柜,灵宝市函谷路与长安路交叉处源浩新时代百货二楼,34.527840,110.890274,购物服务;购物相关场所;购物相关场所,B0FFJ2LFCH
721,La Chapelle|拉夏贝尔,河南省,三门峡市,灵宝市,拉夏贝尔7M,灵宝市友谊百货二楼,34.524444,110.872224,购物服务;购物相关场所;购物相关场所,B0FFIE4A4L
722,La Chapelle|拉夏贝尔,河南省,三门峡市,湖滨区,拉夏贝儿,湖滨区黄河路大涨百货,34.779636,111.199692,购物服务;购物相关场所;购物相关场所,B0FFIWOQ3M
723,La Chapelle|拉夏贝尔,河南省,周口市,淮阳县,拉夏贝尔,淮阳县陈州路富美广场一楼,33.734677,114.855727,购物服务;服装鞋帽皮具店;品牌服装店,B0FFHHPJX1
724,La Chapelle|拉夏贝尔,河南省,周口市,淮阳县,素洁美甲美睫,淮阳县城关回族镇富美广场拉夏贝尔对面,33.734572,114.855474,生活服务;美容美发店;美容美发店,B0FFJ1UI31
725,La Chapelle|拉夏贝尔,河南省,周口市,淮阳县,拉夏贝尔,淮阳县陈州路富美广场一楼,33.734677,114.855727,购物服务;服装鞋帽皮具店;品牌服装店,B0FFHHPJX1
726,La Chapelle|拉夏贝尔,河南省,周口市,淮阳县,素洁美甲美睫,淮阳县城关回族镇富美广场拉夏贝尔对面,33.734572,114.855474,生活服务;美容美发店;美容美发店,B0FFJ1UI31
727,La Chapelle|拉夏贝尔,四川省,泸州市,江阳区,拉夏贝尔(江阳西路),江阳区江阳西路25号汇通百货时代商都2层,28.875418,105.436615,购物服务;服装鞋帽皮具店;服装鞋帽皮具店,B0FFFOINT0
728,La Chapelle|拉夏贝尔,四川省,泸州市,江阳区,拉夏贝尔集合店,江阳区迎辉路大世界,28.891826,105.451902,购物服务;服装鞋帽皮具店;品牌服装店,B0FFIB9VVV
729,La Chapelle|拉夏贝尔,四川省,泸州市,江阳区,拉夏贝尔(江阳西路),江阳区江阳西路25号汇通百货时代商都2层,28.875418,105.436615,购物服务;服装鞋帽皮具店;服装鞋帽皮具店,B0FFFOINT0
730,La Chapelle|拉夏贝尔,四川省,泸州市,江阳区,拉夏贝尔集合店,江阳区迎辉路大世界,28.891826,105.451902,购物服务;服装鞋帽皮具店;品牌服装店,B0FFIB9VVV
731,La Chapelle|拉夏贝尔,安徽省,合肥市,包河区,拉夏贝尔(加侨国际广场3号楼),包河区东二环路与包河大道交叉口西南角加侨国际广场3号楼F1层,31.814956,117.301782,购物服务;服装鞋帽皮具店;品牌服装店,B0FFHEN3V2
732,La Chapelle|拉夏贝尔,安徽省,合肥市,蜀山区,拉夏贝尔LB专柜,蜀山区望江西路与潜山路交口百大港汇购物中心三楼,31.832850,117.232536,购物服务;购物相关场所;购物相关场所,B0FFIWR2S6
733,La Chapelle|拉夏贝尔,安徽省,合肥市,包河区,LA CHAPELLE(万达广场),包河区马鞍山路130号万达广场2F层2F-5,31.857042,117.303148,购物服务;服装鞋帽皮具店;品牌服装店,B0FFHIZ9SG
734,La Chapelle|拉夏贝尔,安徽省,合肥市,蜀山区,La Chapelle(银泰城),蜀山区潜山路190号银泰城F2层211,31.818064,117.232732,购物服务;服装鞋帽皮具店;品牌服装店,B0FFFU7TO6
735,La Chapelle|拉夏贝尔,安徽省,合肥市,包河区,La Chapelle(万达茂),包河区庐州大道800号万达茂F1层,31.703952,117.303898,购物服务;服装鞋帽皮具店;品牌服装店,B0FFI1Q8UX
736,La Chapelle|拉夏贝尔,安徽省,合肥市,庐阳区,La Chapelle(绿都商城),庐阳区徽州大道618号绿都商城F2层,31.863805,117.288267,购物服务;服装鞋帽皮具店;品牌服装店,B0227182XP
737,La Chapelle|拉夏贝尔,安徽省,合肥市,庐阳区,La Chapelle(北京华联蒙城路购物中心),庐阳区濉溪路202号北京华联蒙城路购物中心F2层,31.880050,117.277803,购物服务;服装鞋帽皮具店;品牌服装店,B0FFHFC27I
738,La Chapelle|拉夏贝尔,安徽省,合肥市,瑶海区,La Chapelle(瑶海万达广场店),瑶海区临泉东路与和县路交叉口瑶海万达广场1层,31.876309,117.349653,购物服务;服装鞋帽皮具店;品牌服装店,B0FFHDAO1R
739,La Chapelle|拉夏贝尔,安徽省,合肥市,包河区,La Chapelle(世纪金源店),包河区徽州大道5566号世纪金源购物中心B区1层(徽州大道与紫云路交口),31.743030,117.289100,购物服务;服装鞋帽皮具店;品牌服装店,B0FFFT4MOK
740,La Chapelle|拉夏贝尔,安徽省,合肥市,巢湖市,LA CHAPELLE(商之都),巢湖市人民路131号商之都2F层,31.598520,117.867891,购物服务;服装鞋帽皮具店;品牌服装店,B0FFG01OM5
741,La Chapelle|拉夏贝尔,安徽省,合肥市,庐阳区,拉夏贝尔小童装店,庐阳区百大乐普生三楼,31.863939,117.289787,购物服务;购物相关场所;购物相关场所,B0FFISC87O
742,La Chapelle|拉夏贝尔,安徽省,合肥市,瑶海区,拉夏贝尔拉贝缇女装,瑶海区长江东路宝业东城广场二楼,31.869951,117.336838,购物服务;购物相关场所;购物相关场所,B0FFIYKWAC
743,La Chapelle|拉夏贝尔,安徽省,合肥市,庐阳区,La Chapelle,庐阳区北二环与四里河路交叉口港荣百货二楼,31.897109,117.235165,购物服务;服装鞋帽皮具店;服装鞋帽皮具店,B0FFH4Z92P
744,La Chapelle|拉夏贝尔,安徽省,合肥市,包河区,La Chapelle,包河区马鞍山南路502号百大购物中心1层,31.832892,117.302495,购物服务;服装鞋帽皮具店;品牌服装店,B0FFH6F9DO
745,La Chapelle|拉夏贝尔,安徽省,合肥市,肥西县,La Chapelle,肥西县上派镇巢湖路百大购物中心3楼,31.724410,117.168983,购物服务;服装鞋帽皮具店;品牌服装店,B0FFHSOR1S
746,La Chapelle|拉夏贝尔,安徽省,合肥市,巢湖市,La Chapelle,巢湖市人民路与团结路交叉口巢湖百大购物中心2层,31.596577,117.868321,购物服务;服装鞋帽皮具店;品牌服装店,B0FFHSOZS4
747,La Chapelle|拉夏贝尔,安徽省,合肥市,包河区,Lachapelle,包河区庐州大道与紫云路交叉口悦方IDMall,31.740013,117.304450,购物服务;服装鞋帽皮具店;品牌服装店,B0FFHJ4QTR
748,La Chapelle|拉夏贝尔,安徽省,合肥市,蜀山区,La Chapelle sport,蜀山区长江西路689号百大鼓楼商厦F2,31.854354,117.204340,购物服务;服装鞋帽皮具店;品牌服装店,B0FFHD3B6A
749,La Chapelle|拉夏贝尔,安徽省,合肥市,瑶海区,La Chapelle Kids(瑶海万达广场),瑶海区临泉东路与和县路交叉口瑶海万达广场1层,31.876355,117.349577,购物服务;专卖店;儿童用品店,B0FFHDTJ1Q
750,La Chapelle|拉夏贝尔,安徽省,合肥市,巢湖市,La Chapelle SPORT(商之都),巢湖市人民路131号商之都2F层,31.598479,117.868050,购物服务;服装鞋帽皮具店;品牌服装店,B0FFI5MOML
751,La Chapelle|拉夏贝尔,安徽省,合肥市,包河区,拉夏贝尔(加侨国际广场3号楼),包河区东二环路与包河大道交叉口西南角加侨国际广场3号楼F1层,31.814956,117.301782,购物服务;服装鞋帽皮具店;品牌服装店,B0FFHEN3V2
752,La Chapelle|拉夏贝尔,安徽省,合肥市,蜀山区,拉夏贝尔LB专柜,蜀山区望江西路与潜山路交口百大港汇购物中心三楼,31.832850,117.232536,购物服务;购物相关场所;购物相关场所,B0FFIWR2S6
753,La Chapelle|拉夏贝尔,安徽省,合肥市,包河区,LA CHAPELLE(万达广场),包河区马鞍山路130号万达广场2F层2F-5,31.857042,117.303148,购物服务;服装鞋帽皮具店;品牌服装店,B0FFHIZ9SG
754,La Chapelle|拉夏贝尔,安徽省,合肥市,蜀山区,La Chapelle(银泰城),蜀山区潜山路190号银泰城F2层211,31.818064,117.232732,购物服务;服装鞋帽皮具店;品牌服装店,B0FFFU7TO6
755,La Chapelle|拉夏贝尔,安徽省,合肥市,包河区,La Chapelle(万达茂),包河区庐州大道800号万达茂F1层,31.703952,117.303898,购物服务;服装鞋帽皮具店;品牌服装店,B0FFI1Q8UX
756,La Chapelle|拉夏贝尔,安徽省,合肥市,庐阳区,La Chapelle(绿都商城),庐阳区徽州大道618号绿都商城F2层,31.863805,117.288267,购物服务;服装鞋帽皮具店;品牌服装店,B0227182XP
757,La Chapelle|拉夏贝尔,安徽省,合肥市,庐阳区,La Chapelle(北京华联蒙城路购物中心),庐阳区濉溪路202号北京华联蒙城路购物中心F2层,31.880050,117.277803,购物服务;服装鞋帽皮具店;品牌服装店,B0FFHFC27I
758,La Chapelle|拉夏贝尔,安徽省,合肥市,瑶海区,La Chapelle(瑶海万达广场店),瑶海区临泉东路与和县路交叉口瑶海万达广场1层,31.876309,117.349653,购物服务;服装鞋帽皮具店;品牌服装店,B0FFHDAO1R
759,La Chapelle|拉夏贝尔,安徽省,合肥市,包河区,La Chapelle(世纪金源店),包河区徽州大道5566号世纪金源购物中心B区1层(徽州大道与紫云路交口),31.743030,117.289100,购物服务;服装鞋帽皮具店;品牌服装店,B0FFFT4MOK
760,La Chapelle|拉夏贝尔,安徽省,合肥市,巢湖市,LA CHAPELLE(商之都),巢湖市人民路131号商之都2F层,31.598520,117.867891,购物服务;服装鞋帽皮具店;品牌服装店,B0FFG01OM5
761,La Chapelle|拉夏贝尔,安徽省,合肥市,庐阳区,拉夏贝尔小童装店,庐阳区百大乐普生三楼,31.863939,117.289787,购物服务;购物相关场所;购物相关场所,B0FFISC87O
762,La Chapelle|拉夏贝尔,安徽省,合肥市,瑶海区,拉夏贝尔拉贝缇女装,瑶海区长江东路宝业东城广场二楼,31.869951,117.336838,购物服务;购物相关场所;购物相关场所,B0FFIYKWAC
763,La Chapelle|拉夏贝尔,安徽省,合肥市,庐阳区,La Chapelle,庐阳区北二环与四里河路交叉口港荣百货二楼,31.897109,117.235165,购物服务;服装鞋帽皮具店;服装鞋帽皮具店,B0FFH4Z92P
764,La Chapelle|拉夏贝尔,安徽省,合肥市,包河区,La Chapelle,包河区马鞍山南路502号百大购物中心1层,31.832892,117.302495,购物服务;服装鞋帽皮具店;品牌服装店,B0FFH6F9DO
765,La Chapelle|拉夏贝尔,安徽省,合肥市,肥西县,La Chapelle,肥西县上派镇巢湖路百大购物中心3楼,31.724410,117.168983,购物服务;服装鞋帽皮具店;品牌服装店,B0FFHSOR1S
766,La Chapelle|拉夏贝尔,安徽省,合肥市,巢湖市,La Chapelle,巢湖市人民路与团结路交叉口巢湖百大购物中心2层,31.596577,117.868321,购物服务;服装鞋帽皮具店;品牌服装店,B0FFHSOZS4
767,La Chapelle|拉夏贝尔,安徽省,合肥市,包河区,Lachapelle,包河区庐州大道与紫云路交叉口悦方IDMall,31.740013,117.304450,购物服务;服装鞋帽皮具店;品牌服装店,B0FFHJ4QTR
768,La Chapelle|拉夏贝尔,安徽省,合肥市,蜀山区,La Chapelle sport,蜀山区长江西路689号百大鼓楼商厦F2,31.854354,117.204340,购物服务;服装鞋帽皮具店;品牌服装店,B0FFHD3B6A
769,La Chapelle|拉夏贝尔,安徽省,合肥市,瑶海区,La Chapelle Kids(瑶海万达广场),瑶海区临泉东路与和县路交叉口瑶海万达广场1层,31.876355,117.349577,购物服务;专卖店;儿童用品店,B0FFHDTJ1Q
770,La Chapelle|拉夏贝尔,安徽省,合肥市,巢湖市,La Chapelle SPORT(商之都),巢湖市人民路131号商之都2F层,31.598479,117.868050,购物服务;服装鞋帽皮具店;品牌服装店,B0FFI5MOML
771,La Chapelle|拉夏贝尔,安徽省,合肥市,庐阳区,拉夏贝儿,庐阳区双岗街道白水坝北京华联购物中心必胜客旁一楼,31.879952,117.277767,购物服务;购物相关场所;购物相关场所,B0FFH9UO31
772,La Chapelle|拉夏贝尔,安徽省,合肥市,包河区,拉夏贝儿,包河区金寨南路1168号百大商业大厦3楼,31.828965,117.264323,购物服务;购物相关场所;购物相关场所,B0FFI7274M
773,La Chapelle|拉夏贝尔,安徽省,合肥市,肥西县,La Chaplle(肥西百大店),肥西县上派镇派河大道和巢湖路交叉口肥西百大购物中心3楼,31.724410,117.168983,购物服务;服装鞋帽皮具店;品牌服装店,B0FFG9NQ7W
774,La Chapelle|拉夏贝尔,安徽省,合肥市,蜀山区,LaChapelle Sports(银泰城),蜀山区潜山路190号银泰城F2层214,31.817667,117.232966,购物服务;服装鞋帽皮具店;品牌服装店,B0FFHT5IV3
775,La Chapelle|拉夏贝尔,安徽省,合肥市,庐阳区,Puella(北京华联购物中心店),庐阳区濉溪路202号北京华联购物中心2层,31.880053,117.277839,购物服务;专卖店;专营店,B0FFIPO10Z
776,La Chapelle|拉夏贝尔,安徽省,合肥市,包河区,Candie's,包河区马鞍山路1000号新都会环球购物广场1F层,31.847276,117.302170,购物服务;服装鞋帽皮具店;品牌服装店,B0FFHJRLHW
777,La Chapelle|拉夏贝尔,安徽省,合肥市,包河区,Vougeek,包河区庐州大道与紫云路交叉口悦方IDMall,31.740235,117.304107,购物服务;服装鞋帽皮具店;品牌服装店,B0FFHJ4R8K
778,La Chapelle|拉夏贝尔,安徽省,合肥市,蜀山区,Candie's(安粮国贸购物中心),蜀山区金寨南路811号安粮国贸购物中心F2层,31.817973,117.253802,购物服务;服装鞋帽皮具店;品牌服装店,B0FFI69N06
779,La Chapelle|拉夏贝尔,安徽省,合肥市,庐阳区,Candie's(北京华联蒙城路购物中心),庐阳区濉溪路202号北京华联蒙城路购物中心F1层,31.880029,117.277788,购物服务;服装鞋帽皮具店;品牌服装店,B0FFFDFDWT
780,La Chapelle|拉夏贝尔,安徽省,合肥市,包河区,Lachapelle综合馆,包河区庐州大道与紫云路交叉口悦方IDMall,31.740002,117.304203,购物服务;服装鞋帽皮具店;服装鞋帽皮具店,B0FFHJ4QTU
781,La Chapelle|拉夏贝尔,安徽省,合肥市,蜀山区,拉夏贝儿,蜀山区之心城三楼,31.854059,117.257408,购物服务;购物相关场所;购物相关场所,B0FFJ4YMMY
782,La Chapelle|拉夏贝尔,江西省,抚州市,临川区,拉夏贝尔,临川区融旺百货,27.992484,116.357932,购物服务;服装鞋帽皮具店;品牌服装店,B0FFHUI400
783,La Chapelle|拉夏贝尔,江西省,抚州市,临川区,拉夏贝尔,临川区融旺百货,27.992484,116.357932,购物服务;服装鞋帽皮具店;品牌服装店,B0FFHUI400
784,La Chapelle|拉夏贝尔,河北省,秦皇岛市,海港区,La Chapelle(金街时代广场),海港区马坊路2号金街时代广场3层,39.944511,119.599976,购物服务;服装鞋帽皮具店;品牌服装店,B0FFFFGG6V
785,La Chapelle|拉夏贝尔,河北省,秦皇岛市,海港区,Puella,海港区商城东路与商城北街交叉口东北50米,39.935646,119.605671,购物服务;服装鞋帽皮具店;品牌服装店,B0FFHSOCAP
786,La Chapelle|拉夏贝尔,河北省,秦皇岛市,海港区,La Chapelle(金街时代广场),海港区马坊路2号金街时代广场3层,39.944511,119.599976,购物服务;服装鞋帽皮具店;品牌服装店,B0FFFFGG6V
787,La Chapelle|拉夏贝尔,河北省,秦皇岛市,海港区,Puella,海港区商城东路与商城北街交叉口东北50米,39.935646,119.605671,购物服务;服装鞋帽皮具店;品牌服装店,B0FFHSOCAP
788,La Chapelle|拉夏贝尔,福建省,龙岩市,新罗区,拉夏贝尔,新罗区九一北路7号917商场2层,25.096017,117.031260,购物服务;服装鞋帽皮具店;品牌服装店,B0FFGC5HEB
789,La Chapelle|拉夏贝尔,福建省,龙岩市,新罗区,拉夏贝尔(万达广场),新罗区双龙路1号万达广场F3层,25.055906,117.022591,购物服务;服装鞋帽皮具店;品牌服装店,B0FFG25KG4
790,La Chapelle|拉夏贝尔,福建省,龙岩市,新罗区,La Chapelle(万阳城),新罗区龙岩大道383号万阳城F2层,25.085022,117.018791,购物服务;服装鞋帽皮具店;品牌服装店,B0FFG27ZWG
791,La Chapelle|拉夏贝尔,福建省,龙岩市,新罗区,La Chapelle,新罗区莲庄北路新天地购物广场2层,25.080571,117.044290,购物服务;服装鞋帽皮具店;品牌服装店,B0FFG25OVX
792,La Chapelle|拉夏贝尔,福建省,龙岩市,新罗区,La Chapelle,新罗区曹溪镇莲南路666号b栋新华都购物中心龙岩店1层,25.071402,117.025182,购物服务;服装鞋帽皮具店;品牌服装店,B0FFFP116T
793,La Chapelle|拉夏贝尔,福建省,龙岩市,新罗区,拉夏贝尔,新罗区九一北路7号917商场2层,25.096017,117.031260,购物服务;服装鞋帽皮具店;品牌服装店,B0FFGC5HEB
794,La Chapelle|拉夏贝尔,福建省,龙岩市,新罗区,拉夏贝尔(万达广场),新罗区双龙路1号万达广场F3层,25.055906,117.022591,购物服务;服装鞋帽皮具店;品牌服装店,B0FFG25KG4
795,La Chapelle|拉夏贝尔,福建省,龙岩市,新罗区,La Chapelle(万阳城),新罗区龙岩大道383号万阳城F2层,25.085022,117.018791,购物服务;服装鞋帽皮具店;品牌服装店,B0FFG27ZWG
796,La Chapelle|拉夏贝尔,福建省,龙岩市,新罗区,La Chapelle,新罗区莲庄北路新天地购物广场2层,25.080571,117.044290,购物服务;服装鞋帽皮具店;品牌服装店,B0FFG25OVX
797,La Chapelle|拉夏贝尔,福建省,龙岩市,新罗区,La Chapelle,新罗区曹溪镇莲南路666号b栋新华都购物中心龙岩店1层,25.071402,117.025182,购物服务;服装鞋帽皮具店;品牌服装店,B0FFFP116T
798,La Chapelle|拉夏贝尔,陕西省,铜川市,耀州区,拉夏贝尔专柜,耀州区新区大耀城二楼,34.897160,108.948036,购物服务;购物相关场所;购物相关场所,B0FFIR23P5
799,La Chapelle|拉夏贝尔,陕西省,铜川市,耀州区,拉夏贝尔专柜,耀州区新区大耀城二楼,34.897160,108.948036,购物服务;购物相关场所;购物相关场所,B0FFIR23P5
800,La Chapelle|拉夏贝尔,甘肃省,张掖市,甘州区,拉夏贝尔,甘州区东街街道鼓楼世纪金花,38.937092,100.458129,购物服务;服装鞋帽皮具店;品牌服装店,B0FFHW0L4W
801,La Chapelle|拉夏贝尔,甘肃省,张掖市,甘州区,拉夏贝尔PA专柜,甘州区南大街十字国芳百货三楼,38.933974,100.458234,购物服务;购物相关场所;购物相关场所,B0FFILL5NU
802,La Chapelle|拉夏贝尔,甘肃省,张掖市,甘州区,小小志童装,甘州区南大街十字国芳百货三楼拉夏贝尔PA专柜,38.933975,100.458229,购物服务;专卖店;儿童用品店,B0FFIWV1IZ
803,La Chapelle|拉夏贝尔,甘肃省,张掖市,甘州区,拉夏贝尔,甘州区东街街道鼓楼世纪金花,38.937092,100.458129,购物服务;服装鞋帽皮具店;品牌服装店,B0FFHW0L4W
804,La Chapelle|拉夏贝尔,甘肃省,张掖市,甘州区,拉夏贝尔PA专柜,甘州区南大街十字国芳百货三楼,38.933974,100.458234,购物服务;购物相关场所;购物相关场所,B0FFILL5NU
805,La Chapelle|拉夏贝尔,甘肃省,张掖市,甘州区,小小志童装,甘州区南大街十字国芳百货三楼拉夏贝尔PA专柜,38.933975,100.458229,购物服务;专卖店;儿童用品店,B0FFIWV1IZ
806,La Chapelle|拉夏贝尔,甘肃省,临夏回族自治州,临夏市,拉夏贝尔女装,临夏市胜东路天元商业广场二楼,35.605247,103.227100,购物服务;专卖店;专营店,B0FFHJ1LC0
807,La Chapelle|拉夏贝尔,甘肃省,临夏回族自治州,临夏市,拉夏贝尔女装,临夏市胜东路天元商业广场二楼,35.605247,103.227100,购物服务;专卖店;专营店,B0FFHJ1LC0
808,La Chapelle|拉夏贝尔,湖南省,长沙市,天心区,拉夏贝尔,天心区坡子街216号悦方id mallf3层,28.189266,112.975314,购物服务;服装鞋帽皮具店;品牌服装店,B0FFF0F8GY
809,La Chapelle|拉夏贝尔,湖南省,长沙市,岳麓区,拉夏贝尔(奥克斯广场),岳麓区岳麓大道57号奥克斯广场F1层,28.222894,112.954844,购物服务;服装鞋帽皮具店;品牌服装店,B0FFFZHT3U
810,La Chapelle|拉夏贝尔,湖南省,长沙市,岳麓区,拉夏贝尔(奥克斯广场),岳麓区岳麓大道57号奥克斯广场F2层,28.224311,112.954223,购物服务;服装鞋帽皮具店;品牌服装店,B0FFHXS2MV
811,La Chapelle|拉夏贝尔,湖南省,长沙市,岳麓区,拉夏贝尔(奥克斯缤纷广场),岳麓区杜鹃路858号奥克斯缤纷广场F1层,28.231227,112.916870,购物服务;服装鞋帽皮具店;品牌服装店,B0FFH9VKZX
812,La Chapelle|拉夏贝尔,湖南省,长沙市,岳麓区,拉夏贝尔(奥克斯缤纷广场),岳麓区杜鹃路858号奥克斯缤纷广场F2层,28.231158,112.916771,购物服务;服装鞋帽皮具店;品牌服装店,B0FFI69FTF
813,La Chapelle|拉夏贝尔,湖南省,长沙市,雨花区,LA CHAPELLE,雨花区湘府中路18号德思勤城市广场2层,28.111477,113.013422,购物服务;服装鞋帽皮具店;品牌服装店,B0FFGVVXOR
814,La Chapelle|拉夏贝尔,湖南省,长沙市,岳麓区,La Chapelle,岳麓区梅溪湖环湖路1177号金茂览秀城2层,28.196624,112.902206,购物服务;服装鞋帽皮具店;品牌服装店,B0FFHO1VON
815,La Chapelle|拉夏贝尔,湖南省,长沙市,芙蓉区,La Chapelle(新世界百货),芙蓉区五一西路153号新世界百货3F层,28.194769,112.978571,购物服务;服装鞋帽皮具店;品牌服装店,B0FFG4BUZ4
816,La Chapelle|拉夏贝尔,湖南省,长沙市,天心区,La Chapelle(友阿春天),天心区黄兴中路49号友阿春天L4层,28.193993,112.975704,购物服务;服装鞋帽皮具店;品牌服装店,B0FFHS339F
817,La Chapelle|拉夏贝尔,湖南省,长沙市,开福区,La Chapelle(景观带),开福区[],28.250988,112.978964,购物服务;服装鞋帽皮具店;品牌服装店,B0FFIW86ZC
818,La Chapelle|拉夏贝尔,湖南省,长沙市,岳麓区,La Chapelle(河西王府井店),岳麓区金星中路383号河西王府井商业广场F2,28.218998,112.933152,购物服务;服装鞋帽皮具店;品牌服装店,B0FFIZP4E5
819,La Chapelle|拉夏贝尔,湖南省,长沙市,望城区,La Chapelle(裕田奥莱小镇南),望城区白沙洲街道雷锋大道668号,28.322399,112.859493,购物服务;服装鞋帽皮具店;品牌服装店,B0FFGLDAH2
820,La Chapelle|拉夏贝尔,湖南省,长沙市,岳麓区,LaChapelle(步步高梅溪新天地店),岳麓区枫林三路1099号步步高梅溪新天地1层室内步行街,28.199441,112.861515,购物服务;购物相关场所;购物相关场所,B0FFHDOVX3
821,La Chapelle|拉夏贝尔,湖南省,长沙市,雨花区,拉夏贝尔PA,雨花区湘府中路459号华润万家1楼,28.109329,113.019218,购物服务;购物相关场所;购物相关场所,B0FFJ31MFN
822,La Chapelle|拉夏贝尔,湖南省,长沙市,岳麓区,拉夏贝尔7M专柜,岳麓区梅溪湖环湖路1177号金茂览秀城2楼,28.196375,112.902382,购物服务;购物相关场所;购物相关场所,B0FFIXSK4N
823,La Chapelle|拉夏贝尔,湖南省,长沙市,雨花区,拉夏贝,雨花区圭塘街道万家丽中路三段36号喜盈门范城2F,28.133086,113.034350,购物服务;购物相关场所;购物相关场所,B0FFHDLPJH
824,La Chapelle|拉夏贝尔,湖南省,长沙市,天心区,拉夏贝尔,天心区坡子街216号悦方id mallf3层,28.189266,112.975314,购物服务;服装鞋帽皮具店;品牌服装店,B0FFF0F8GY
825,La Chapelle|拉夏贝尔,湖南省,长沙市,岳麓区,拉夏贝尔(奥克斯广场),岳麓区岳麓大道57号奥克斯广场F1层,28.222894,112.954844,购物服务;服装鞋帽皮具店;品牌服装店,B0FFFZHT3U
826,La Chapelle|拉夏贝尔,湖南省,长沙市,岳麓区,拉夏贝尔(奥克斯广场),岳麓区岳麓大道57号奥克斯广场F2层,28.224311,112.954223,购物服务;服装鞋帽皮具店;品牌服装店,B0FFHXS2MV
827,La Chapelle|拉夏贝尔,湖南省,长沙市,岳麓区,拉夏贝尔(奥克斯缤纷广场),岳麓区杜鹃路858号奥克斯缤纷广场F1层,28.231227,112.916870,购物服务;服装鞋帽皮具店;品牌服装店,B0FFH9VKZX
828,La Chapelle|拉夏贝尔,湖南省,长沙市,岳麓区,拉夏贝尔(奥克斯缤纷广场),岳麓区杜鹃路858号奥克斯缤纷广场F2层,28.231158,112.916771,购物服务;服装鞋帽皮具店;品牌服装店,B0FFI69FTF
829,La Chapelle|拉夏贝尔,湖南省,长沙市,雨花区,LA CHAPELLE,雨花区湘府中路18号德思勤城市广场2层,28.111477,113.013422,购物服务;服装鞋帽皮具店;品牌服装店,B0FFGVVXOR
830,La Chapelle|拉夏贝尔,湖南省,长沙市,岳麓区,La Chapelle,岳麓区梅溪湖环湖路1177号金茂览秀城2层,28.196624,112.902206,购物服务;服装鞋帽皮具店;品牌服装店,B0FFHO1VON
831,La Chapelle|拉夏贝尔,湖南省,长沙市,芙蓉区,La Chapelle(新世界百货),芙蓉区五一西路153号新世界百货3F层,28.194769,112.978571,购物服务;服装鞋帽皮具店;品牌服装店,B0FFG4BUZ4
832,La Chapelle|拉夏贝尔,湖南省,长沙市,天心区,La Chapelle(友阿春天),天心区黄兴中路49号友阿春天L4层,28.193993,112.975704,购物服务;服装鞋帽皮具店;品牌服装店,B0FFHS339F
833,La Chapelle|拉夏贝尔,湖南省,长沙市,开福区,La Chapelle(景观带),开福区[],28.250988,112.978964,购物服务;服装鞋帽皮具店;品牌服装店,B0FFIW86ZC
834,La Chapelle|拉夏贝尔,湖南省,长沙市,岳麓区,La Chapelle(河西王府井店),岳麓区金星中路383号河西王府井商业广场F2,28.218998,112.933152,购物服务;服装鞋帽皮具店;品牌服装店,B0FFIZP4E5
835,La Chapelle|拉夏贝尔,湖南省,长沙市,望城区,La Chapelle(裕田奥莱小镇南),望城区白沙洲街道雷锋大道668号,28.322399,112.859493,购物服务;服装鞋帽皮具店;品牌服装店,B0FFGLDAH2
836,La Chapelle|拉夏贝尔,湖南省,长沙市,岳麓区,LaChapelle(步步高梅溪新天地店),岳麓区枫林三路1099号步步高梅溪新天地1层室内步行街,28.199441,112.861515,购物服务;购物相关场所;购物相关场所,B0FFHDOVX3
837,La Chapelle|拉夏贝尔,湖南省,长沙市,雨花区,拉夏贝尔PA,雨花区湘府中路459号华润万家1楼,28.109329,113.019218,购物服务;购物相关场所;购物相关场所,B0FFJ31MFN
838,La Chapelle|拉夏贝尔,湖南省,长沙市,岳麓区,拉夏贝尔7M专柜,岳麓区梅溪湖环湖路1177号金茂览秀城2楼,28.196375,112.902382,购物服务;购物相关场所;购物相关场所,B0FFIXSK4N
839,La Chapelle|拉夏贝尔,湖南省,长沙市,雨花区,拉夏贝,雨花区圭塘街道万家丽中路三段36号喜盈门范城2F,28.133086,113.034350,购物服务;购物相关场所;购物相关场所,B0FFHDLPJH
840,La Chapelle|拉夏贝尔,广东省,深圳市,龙华区,拉夏贝尔,龙华区油松路天汇大厦D栋,22.643506,114.047394,购物服务;服装鞋帽皮具店;品牌服装店,B0FFI8AOJT
841,La Chapelle|拉夏贝尔,广东省,深圳市,宝安区,拉夏贝尔,宝安区西环路新沙天虹二楼,22.667966,113.810399,购物服务;服装鞋帽皮具店;品牌服装店,B0FFI1BTD1
842,La Chapelle|拉夏贝尔,广东省,深圳市,坪山区,拉夏贝尔,坪山区深汕公路坪山益田假日世界1层,22.693148,114.339679,购物服务;服装鞋帽皮具店;品牌服装店,B0FFHSB7IT
843,La Chapelle|拉夏贝尔,广东省,深圳市,龙岗区,拉夏贝尔(金沙摩尔),龙岗区茂盛路1号金沙摩尔F1层,22.646559,114.205127,购物服务;服装鞋帽皮具店;品牌服装店,B0FFHFH9QA
844,La Chapelle|拉夏贝尔,广东省,深圳市,龙岗区,拉夏贝尔(深圳海航城),龙岗区碧新路深圳海航城商业广场L1层A115,22.723860,114.266295,购物服务;服装鞋帽皮具店;品牌服装店,B0FFIR5G4T
845,La Chapelle|拉夏贝尔,广东省,深圳市,福田区,La Chapelle(新世界百货),福田区梅华路98-1号新世界百货F2层,22.565043,114.053081,购物服务;服装鞋帽皮具店;品牌服装店,B0FFFFG3Z1
846,La Chapelle|拉夏贝尔,广东省,深圳市,南山区,拉夏贝尔专柜,南山区常兴路常兴天虹3楼,22.532774,113.922508,购物服务;购物相关场所;购物相关场所,B0FFIQ9UER
847,La Chapelle|拉夏贝尔,广东省,深圳市,宝安区,拉夏贝尔专柜,宝安区石岩镇宏发世纪城一期星城购物中心一楼,22.680217,113.947182,购物服务;购物相关场所;购物相关场所,B0FFHKNS3X
848,La Chapelle|拉夏贝尔,广东省,深圳市,龙华区,拉夏贝尔专柜,龙华区观澜镇桂花路108号首信广场,22.724067,114.060100,购物服务;服装鞋帽皮具店;品牌服装店,B0FFG8E801
849,La Chapelle|拉夏贝尔,广东省,深圳市,龙华区,La Chapelle,龙华区梅龙路2号cococity1层,22.602615,114.046074,购物服务;服装鞋帽皮具店;品牌服装店,B0FFFKU9G8
850,La Chapelle|拉夏贝尔,广东省,深圳市,宝安区,La Chapelle,宝安区福永街道福永大道城市花园1-4层国惠康百货(福永大道)3层,22.669261,113.820107,购物服务;服装鞋帽皮具店;品牌服装店,B0FFG4ZPAB
851,La Chapelle|拉夏贝尔,广东省,深圳市,宝安区,La Chapelle,宝安区石岩国泰路24号石岩工厂店,22.663597,113.919214,购物服务;服装鞋帽皮具店;服装鞋帽皮具店,B0FFI17LSJ
852,La Chapelle|拉夏贝尔,广东省,深圳市,宝安区,La Chapelle,宝安区新湖路99号壹方城B1,22.552222,113.888335,购物服务;服装鞋帽皮具店;品牌服装店,B0FFJ1MDYY
853,La Chapelle|拉夏贝尔,广东省,深圳市,龙华区,La Chapelle,龙华区东环二路8号星河iCO龙华时尚购物领地F1,22.656025,114.037408,购物服务;服装鞋帽皮具店;品牌服装店,B0FFJ0X36E
854,La Chapelle|拉夏贝尔,广东省,深圳市,福田区,LA CHAPELLE(茂业百货),福田区深南中路2020号茂业百货F2层,22.541291,114.092932,购物服务;服装鞋帽皮具店;品牌服装店,B0FFFYFR16
